id,name,formatted_address,lat,lng,types,rating,user_rating_count,price_level
ChIJQbh_NlFt0xQR-rFze-LeEkI,Starbucks,"Gökçehüyük Mah. Ankara Nigde Yonu, Gokcehoyuk Kumeevleri No: 1080A-1080AA Daire: 1-2, Gökçehüyük, 06830 Gölbaşı/Ankara, Türkiye",39.6779722,32.7417599,"[""coffee_shop"", ""cafe"", ""food_store"", ""store"", ""food"", ""point_of_interest"", ""establishment""]",3.2,1122.0,PRICE_LEVEL_MODERATE
ChIJq6X9TABr0xQR1LL6gE-82Og,Ankara Emniyet Müdürlüğü Gölbaşı Polisevi,"Karşıyaka, Küme Evleri Sok., 06830 Gölbaşı/Ankara, Türkiye",39.7521514,32.7782833,"[""restaurant"", ""cafe"", ""hotel"", ""breakfast_restaurant"", ""lodging"", ""food"", ""point_of_interest"", ""establishment""]",4.6,251.0,PRICE_LEVEL_MODERATE
ChIJg9mzK9QZ0xQRMBZHjX4kPBA,Citir Simit Firin Cafe & Bistro,"Aşağıyurtçu, 06815 Etimesgut/Ankara, Türkiye",39.7972354,32.534115799999995,"[""bagel_shop"", ""point_of_interest"", ""bakery"", ""food_store"", ""store"", ""food"", ""establishment""]",4.1,641.0,PRICE_LEVEL_MODERATE
ChIJrbzChNYZ0xQR3JSi1fMFzSI,Bahçem Çıtır Simit - Kahvaltı Tesisi - Çıtır Sıcak Ankara Simidi,"Aşağıyurtçu, Ankara Eskişehir Yolu, 06815 Yenimahalle/Ankara, Türkiye",39.7965956,32.5331327,"[""bagel_shop"", ""breakfast_restaurant"", ""restaurant"", ""point_of_interest"", ""bakery"", ""food_store"", ""store"", ""food"", ""establishment""]",4.2,1043.0,PRICE_LEVEL_MODERATE
ChIJP1UNqe9B0xQRGVzr3WTJ4ow,Colambia Coffee Gölbaşı,"Gaziosmanpaşa, Sahil Cd. No:22, 06830 Gölbaşı/Ankara, Türkiye",39.7857,32.8038809,"[""coffee_shop"", ""cafe"", ""point_of_interest"", ""food_store"", ""store"", ""food"", ""establishment""]",3.7,791.0,PRICE_LEVEL_MODERATE
ChIJJ16ejdhB0xQRFlvLrJijx-w,Coffee LAB Gölbaşı,"Gaziosmanpaşa, Sahil Cd. 12/A, 06830 Gölbaşı/Ankara, Türkiye",39.786312,32.8042522,"[""coffee_shop"", ""cafe"", ""point_of_interest"", ""food_store"", ""store"", ""food"", ""establishment""]",3.9,144.0,PRICE_LEVEL_MODERATE
ChIJvRkmR7dD0xQRJPJl4y542mE,Misbaşak - Gölbaşı,"Eymir, Yedi Göller Cd. No:480, 06830 Gölbaşı/Ankara, Türkiye",39.788399,32.8356756,"[""bakery"", ""fast_food_restaurant"", ""food_store"", ""store"", ""restaurant"", ""food"", ""point_of_interest"", ""establishment""]",3.6,1075.0,PRICE_LEVEL_MODERATE
ChIJjd7Xseof0xQR3fiEwHzyFAM,SAREM ÇITIR SİMİT,"Türkobası, 06909 Sincan/Ankara, Türkiye",39.8304812,32.41563180000001,"[""cafe"", ""food"", ""point_of_interest"", ""establishment""]",4.5,150.0,PRICE_LEVEL_MODERATE
ChIJhamyxZRB0xQRupppmJwMoWg,Mogan Gölü Belediye tesisleri,"Karşıyaka, 06830 Gölbaşı/Ankara, Türkiye",39.7770883,32.789627,"[""cafe"", ""food"", ""point_of_interest"", ""establishment""]",4.1,241.0,PRICE_LEVEL_MODERATE
ChIJW0iseHtB0xQRVFdDSfbGc0E,Coffee Big Hill Gölbaşı Karşıyaka,"Karşıyaka, Haymana Yolu Blv. No: 123 BA, 06830 Gölbaşı/Ankara, Türkiye",39.7810488,32.7863046,"[""coffee_shop"", ""cafe"", ""food_store"", ""store"", ""food"", ""point_of_interest"", ""establishment""]",4.2,144.0,PRICE_LEVEL_MODERATE
ChIJ2ag_ecJB0xQRwuHLA8XIiRA,Köyum Cafe,"Karşıyaka, Haymana Yolu Blv. No:26, 06830 Gölbaşı/Ankara, Türkiye",39.7711373,32.7854343,"[""cafe"", ""breakfast_restaurant"", ""restaurant"", ""food"", ""point_of_interest"", ""establishment""]",3.9,343.0,PRICE_LEVEL_MODERATE
ChIJ7WYswZRB0xQRlCXa6pFxTxk,Selek Cafe Gölbaşı mogan park,"Karşıyaka, Mogan Gölü Rekreasyon Alanı, 06830 Gölbaşı/Ankara, Türkiye",39.7772046,32.7896483,"[""cafe"", ""food"", ""point_of_interest"", ""establishment""]",4.1,527.0,PRICE_LEVEL_MODERATE
ChIJq5aEOe5B0xQRkWRtUrUo358,Şanal Cafe & Restaurant Mogan Gölü Gölbaşı,"Cafe Mogan parkı, Karşıyaka, Gölbaşı Haymana Yolu küme evleri D:9/D 3 nolu, 06830 Gölbaşı/Ankara, Türkiye",39.7706002,32.785491,"[""cafe"", ""restaurant"", ""food"", ""point_of_interest"", ""establishment""]",3.9,458.0,PRICE_LEVEL_MODERATE
ChIJ9X4qz5RB0xQRvST-1Zx5AFQ,SAMIR CAFE,"Mogan Gölü Rekreasyon Alanı 3 No'lu, Karşıyaka, Otopark No:37, 06830 Gölbaşı/Ankara, Türkiye",39.7768181,32.7895803,"[""cafe"", ""restaurant"", ""food"", ""point_of_interest"", ""establishment""]",3.2,811.0,PRICE_LEVEL_MODERATE
ChIJ_____z820xQRum3GRWunK2A,DİVAN RESTAURANT&CAFE,"Mogan Parkı, Karşıyaka, Haymana Yolu Blv. No:38, 06830 Gölbaşı/Ankara, Türkiye",39.7770306,32.7897246,"[""restaurant"", ""cafe"", ""food"", ""point_of_interest"", ""establishment""]",3.3,340.0,PRICE_LEVEL_MODERATE
ChIJubfBfsJB0xQRsq6weMFLuDo,Karcicegi Restorant,"Karşıyaka, Haymana Yolu Blv. No:25, 06830 Gölbaşı/Ankara, Türkiye",39.7709301,32.7853244,"[""restaurant"", ""cafe"", ""food"", ""point_of_interest"", ""establishment""]",4.0,227.0,PRICE_LEVEL_MODERATE
ChIJH7eXp1ZD0xQRRgjJUzTKydI,Mackbear Coffee CO. Gölbaşı,"Bahçelievler, 319. Sk. 18/1 NO: 39, 06830 Gölbaşı/Ankara, Türkiye",39.78250310000001,32.8111246,"[""coffee_shop"", ""cafe"", ""food_store"", ""store"", ""food"", ""point_of_interest"", ""establishment""]",4.2,137.0,PRICE_LEVEL_MODERATE
ChIJHeAunSlC0xQRXbyw9qBIuaY,Angry Waffle,"Gölbaşı, Bahçelievler, 06830 Gölbaşı/Ankara, Türkiye",39.7827715,32.8111308,"[""cafe"", ""dessert_restaurant"", ""chocolate_shop"", ""dessert_shop"", ""candy_store"", ""confectionery"", ""food_store"", ""store"", ""restaurant"", ""food"", ""point_of_interest"", ""establishment""]",4.7,206.0,PRICE_LEVEL_MODERATE
ChIJU5bP_xg_0xQRJoDudTCwvUQ,AŞK-I İNCEK WEDDING,"İncek, Turgut Özal Blv. No:47, 06830 Gölbaşı/Ankara, Türkiye",39.7986283,32.695849599999995,"[""banquet_hall"", ""event_venue"", ""sports_activity_location"", ""cafe"", ""food"", ""point_of_interest"", ""establishment""]",4.0,216.0,PRICE_LEVEL_MODERATE
ChIJU1iBbR5D0xQRAPbye5PoUZ8,Coffee 1919 Gölbaşı Seğmenler,"Seğmenler Mah. Cumhuriyet Cad. No :122G, Seğmenler, 06830 Gölbaşı/Ankara, Türkiye",39.7926953,32.8237331,"[""coffee_shop"", ""food_store"", ""cafe"", ""store"", ""food"", ""point_of_interest"", ""establishment""]",4.7,302.0,PRICE_LEVEL_MODERATE
ChIJVU7YgrlB0xQRmWL8vc-aPQw,Caffé di Toeé Mogan Gölü,"Gaziosmanpaşa, Sahil Cd. No:26, 06830 Gölbaşı/Ankara, Türkiye",39.785216,32.803678999999995,"[""cafe"", ""food"", ""point_of_interest"", ""establishment""]",3.8,538.0,PRICE_LEVEL_MODERATE
ChIJBz3Q8yBB0xQRzDf5nOd2e_s,Bi'Hatıra Coffee & Chocolate,"Gaziosmanpaşa, Sahil Cd. no :16, 06830 Gölbaşı/Ankara, Türkiye",39.7856076,32.8036562,"[""cafe"", ""food"", ""point_of_interest"", ""establishment""]",4.1,809.0,PRICE_LEVEL_MODERATE
ChIJteOAioBB0xQRUoytrhwcoVU,Kocatepe Kahve Evi,"Bahçelievler, 319. Sk. 13/A, 06830 Gölbaşı/Ankara, Türkiye",39.7870216,32.8071632,"[""coffee_shop"", ""food_store"", ""cafe"", ""store"", ""food"", ""point_of_interest"", ""establishment""]",3.8,872.0,PRICE_LEVEL_MODERATE
ChIJX457CiBB0xQR8IB2jNkA6jo,MyMandolinCafe,"Gaziosmanpaşa, Sahil Cd. No:20, 06830, 06830 Gölbaşı/Ankara, Türkiye",39.7859556,32.8039849,"[""cafe"", ""food"", ""point_of_interest"", ""establishment""]",3.0,240.0,PRICE_LEVEL_MODERATE
ChIJHwvZCWNB0xQRKlcr7dVflr8,25 Saat Unlu Mamuller,"Gaziosmanpaşa, 407. Sk. No:1, 06830 Gölbaşı/Ankara, Türkiye",39.8014392,32.8045647,"[""bakery"", ""food_store"", ""store"", ""food"", ""point_of_interest"", ""establishment""]",4.0,1330.0,PRICE_LEVEL_MODERATE
ChIJzU3PBtFD0xQRowOdO8g1j4o,Anakent Unlu Mamuller,"Seğmenler, Cumhuriyet Cd. No:108, 06830 Gölbaşı/Ankara, Türkiye",39.7928009,32.8167156,"[""bakery"", ""food_store"", ""store"", ""food"", ""point_of_interest"", ""establishment""]",4.1,258.0,PRICE_LEVEL_MODERATE
ChIJ1feWtHpB0xQRSd42H_KmC4w,Kete Mogan Bakery Products,"Karşıyaka, Haymana Yolu Blv. No:94, 06830 Gölbaşı/Ankara, Türkiye",39.8007534,32.7983068,"[""bakery"", ""food_store"", ""store"", ""food"", ""point_of_interest"", ""establishment""]",4.2,444.0,PRICE_LEVEL_MODERATE
ChIJ887GdpVB0xQRb9YqgKlccoI,Bülent Börekçilik Ankara Gölbaşı Şafak,"Şafak, Ankara Cd. No:49/A, 06830 Gölbaşı/Ankara, Türkiye",39.7958294,32.8068765,"[""breakfast_restaurant"", ""bakery"", ""food_store"", ""store"", ""restaurant"", ""food"", ""point_of_interest"", ""establishment""]",4.6,368.0,PRICE_LEVEL_MODERATE
ChIJXSaN7zpD0xQRuTDm8F1VQ8A,Hacı Baki Gölbaşı,"Bahçelievler, Cumhuriyet Cd. 18/A, 06830 Gölbaşı/Ankara, Türkiye",39.7879331,32.809254900000006,"[""bakery"", ""dessert_shop"", ""confectionery"", ""food_store"", ""store"", ""food"", ""point_of_interest"", ""establishment""]",3.7,184.0,PRICE_LEVEL_MODERATE
ChIJzSI3_X5B0xQR7MUHtL_IZNw,Mozi Pastanesi,"Gaziosmanpaşa, 377. Sk. No:17, 06830 Gölbaşı/Ankara, Türkiye",39.7925,32.805,"[""bakery"", ""dessert_shop"", ""confectionery"", ""food_store"", ""store"", ""food"", ""point_of_interest"", ""establishment""]",4.4,235.0,PRICE_LEVEL_MODERATE
ChIJWz6Lv3pB0xQRwLrSHwvxu7k,Ages Unlu Mamulleri,"Karşıyaka, Haymana Yolu Blv. No:104, 06830 Gölbaşı/Ankara, Türkiye",39.8000493,32.7984176,"[""bakery"", ""food_store"", ""store"", ""food"", ""point_of_interest"", ""establishment""]",4.0,215.0,PRICE_LEVEL_MODERATE
ChIJf-lhsSpC0xQR373eWpg_lNE,Başak Ekmek & Unlu Mamülleri,"Bahçelievler, Cumhuriyet Cd. No:20, 06830 Gölbaşı/Ankara, Türkiye",39.788151,32.809486,"[""bakery"", ""food_store"", ""store"", ""food"", ""point_of_interest"", ""establishment""]",4.4,261.0,PRICE_LEVEL_INEXPENSIVE
ChIJtcDgMGFB0xQROXkRpoMjgtc,Omsed Fırın Cafe Restaurant,"Karşıyaka, Haymana Cad 10/C, 06830 Gölbaşı/Ankara, Türkiye",39.8047907,32.8019025,"[""restaurant"", ""bakery"", ""food_store"", ""store"", ""food"", ""point_of_interest"", ""establishment""]",3.7,379.0,PRICE_LEVEL_MODERATE
ChIJDVYFAtFD0xQR-fwTaRTO8w0,FIRINCIBEY Unlu Mamülleri,"Seğmenler, Cumhuriyet Cd. 83/a, 06830 Gölbaşı/Ankara, Türkiye",39.7931568,32.8168179,"[""bakery"", ""food_store"", ""store"", ""food"", ""point_of_interest"", ""establishment""]",4.0,262.0,PRICE_LEVEL_MODERATE
ChIJhTv1h9VD0xQRkM25QCtv8s4,İSA NAMZET PASTA CAFE,"Gazi Osman paşa mahallesi Hükümet Cad. and 8/A, Gaziosmanpaşa, 06830 Gölbaşı/Ankara, Türkiye",39.7931095,32.8055921,"[""bakery"", ""dessert_shop"", ""confectionery"", ""food_store"", ""store"", ""food"", ""point_of_interest"", ""establishment""]",4.3,207.0,PRICE_LEVEL_INEXPENSIVE
ChIJ1_yIEdVD0xQRO8acDoxtbDo,Erciyes Borek,"Bahçelievler, Cumhuriyet Cd. 20/A, 06830 Gölbaşı/Ankara, Türkiye",39.7887591,32.8097332,"[""bakery"", ""dessert_restaurant"", ""dessert_shop"", ""confectionery"", ""coffee_shop"", ""food_store"", ""cafe"", ""store"", ""restaurant"", ""food"", ""point_of_interest"", ""establishment""]",3.7,267.0,PRICE_LEVEL_MODERATE
ChIJu1R1omBD0xQRp0ZlIH6VxPk,Ramozz Pasta Dünyası,"Seğmanler mah. Cemal gürsel caddesi NO:149 Yağmur Evler sitesi B Blok NO:25, Seğmenler, 06830 Gölbaşı/Ankara, Türkiye",39.7842958,32.830773,"[""bakery"", ""hamburger_restaurant"", ""breakfast_restaurant"", ""dessert_restaurant"", ""dessert_shop"", ""american_restaurant"", ""confectionery"", ""food_store"", ""cafe"", ""store"", ""restaurant"", ""food"", ""point_of_interest"", ""establishment""]",4.1,140.0,PRICE_LEVEL_MODERATE
ChIJAcKqlntD0xQRo6yJTpb650Q,ARABİCA COFFEE HOUSE GOLBASI,"Seğmenler, Cumhuriyet Cd. no:132/c, 06380 Gölbaşı/Ankara, Türkiye",39.7909698,32.8276939,"[""coffee_shop"", ""food_store"", ""cafe"", ""store"", ""food"", ""point_of_interest"", ""establishment""]",4.1,256.0,PRICE_LEVEL_MODERATE
ChIJW57QmaFD0xQRGOYJ8CLL-kk,Mogan Pastanesi,"Eymir, Manyas Gölü Cd. No:4 D:7, 06830 Gölbaşı/Ankara, Türkiye",39.7928406,32.8492576,"[""bakery"", ""dessert_shop"", ""confectionery"", ""food_store"", ""store"", ""food"", ""point_of_interest"", ""establishment""]",4.3,460.0,PRICE_LEVEL_MODERATE
ChIJ4QzAIlo-0xQRcCt_7NatCDk,Felicita Kahve Fırın,"Dodurga, Odabaşı Cd No:16 D:7b, 06810 Çankaya/Ankara, Türkiye",39.8293808,32.660424299999995,"[""cafe"", ""point_of_interest"", ""food"", ""establishment""]",4.5,378.0,PRICE_LEVEL_MODERATE
ChIJK8-PNZA_0xQRivGieHw4vTU,Tatar Mutfağı,"İncek, Esertepe Cd. No:26 a, 06830 Gölbaşı/Ankara, Türkiye",39.8155813,32.7018718,"[""restaurant"", ""breakfast_restaurant"", ""tea_house"", ""point_of_interest"", ""food"", ""establishment""]",4.4,514.0,PRICE_LEVEL_MODERATE
ChIJScEaUgBB0xQR2RO27L2Me8M,Cacao Reserve İncek,"Kızılcaşar, Incek Şht. Savcı Mehmet Selim Kiraz Blv No:5, 06830 Gölbaşı/Ankara, Türkiye",39.8263073,32.7266413,"[""cafe"", ""food"", ""point_of_interest"", ""establishment""]",4.2,167.0,PRICE_LEVEL_MODERATE
ChIJHzJMNR9B0xQRsAXDX77saVE,Harper's Coffee İncek,"İncek Şehit Savcı Mehmet Selim Kiraz Bulvarı, Kızılcaşar, İncek Avlu Sitesi No:3, 06830 Gölbaşı/Ankara, Türkiye",39.8245849,32.7227096,"[""cafe"", ""coffee_shop"", ""food_store"", ""store"", ""food"", ""point_of_interest"", ""establishment""]",4.4,1000.0,PRICE_LEVEL_MODERATE
ChIJp-eFlDM_0xQRPsiuabJMJ40,Coffee Project | İncek,"Kızılcaşar, Incek Blv No:284, 06830 Gölbaşı/Ankara, Türkiye",39.8137824,32.712844,"[""coffee_shop"", ""cafe"", ""food_store"", ""store"", ""food"", ""point_of_interest"", ""establishment""]",4.5,657.0,PRICE_LEVEL_MODERATE
ChIJF5ER1MVB0xQR_iDHLJareE8,Coffee 1919 İncek,"Avlu Sitesi, Kızılcaşar, 1209. Sk. No:3/A-D, 06830 Gölbaşı/Ankara, Türkiye",39.8245575,32.723017,"[""coffee_shop"", ""cafe"", ""food_store"", ""store"", ""food"", ""point_of_interest"", ""establishment""]",4.3,201.0,PRICE_LEVEL_MODERATE
ChIJd2acS88_0xQRNJEn6unU3NY,GMO Simitci incek,"Kızılcaşar, 2686. Cad., 06830 Gölbaşı/Ankara, Türkiye",39.8238186,32.7173848,"[""bakery"", ""point_of_interest"", ""food_store"", ""store"", ""food"", ""establishment""]",4.0,365.0,PRICE_LEVEL_MODERATE
ChIJCQ23umA_0xQRpQRoeKAPytU,Misbaşak - İncek,"Kızılcaşar, Incek Şht. Savcı Mehmet Selim Kiraz Blv NO:260/D, 06149 Gölbaşı/Ankara, Türkiye",39.8146888,32.715106899999995,"[""bakery"", ""point_of_interest"", ""food_store"", ""store"", ""food"", ""establishment""]",4.5,542.0,PRICE_LEVEL_MODERATE
ChIJxSyJJYQ_0xQRwb1Rw-B6CcM,Simit and Simit/incek kahvaltı,"İncek, Turgut Özal Blv. No:15, 06830 Gölbaşı/Ankara, Türkiye",39.8130469,32.7120179,"[""restaurant"", ""breakfast_restaurant"", ""point_of_interest"", ""bagel_shop"", ""bakery"", ""food_store"", ""store"", ""food"", ""establishment""]",3.9,348.0,PRICE_LEVEL_MODERATE
ChIJW7j9YsNJ0xQR-AhX1-iZkZI,Bülent Börekçilik Ankara Gölbaşı İncek Ahlatlıbel,"Kızılcaşar, 1213. Sk. 27/A, 06770 Gölbaşı/Ankara, Türkiye",39.8280362,32.7364283,"[""bakery"", ""food_store"", ""store"", ""food"", ""point_of_interest"", ""establishment""]",4.8,182.0,PRICE_LEVEL_MODERATE
ChIJPU1smARN0xQRGBUZRPt_HVM,İNCEK YUFKA YÖRESEL KÖY ÜRÜNLERİ,"KIZILCAŞAR MAHALLESİ, İNCEK, 1214/1 SOKAK 5/10, 06630 Gölbaşı/Ankara, Türkiye",39.8275885,32.7377295,"[""bakery"", ""food_store"", ""store"", ""food"", ""point_of_interest"", ""establishment""]",5.0,108.0,PRICE_LEVEL_MODERATE
ChIJpcU22qZD0xQR_XNnDz3S5E8,DAMAK UNLU MAMÜLLER,"Şafak, 06830 Gölbaşı/Ankara, Türkiye",39.8012067,32.8102549,"[""bakery"", ""food_store"", ""cafe"", ""store"", ""food"", ""point_of_interest"", ""establishment""]",4.2,202.0,PRICE_LEVEL_MODERATE
ChIJtZKTEGVP0xQRnixNPzqhAW8,Delta Macera Sport & Cafe,"Yeşilken mah, 555 Sok. 1/A, 06450 Çankaya/Ankara, Türkiye",39.8265697,32.8497977,"[""cafe"", ""breakfast_restaurant"", ""cafeteria"", ""bicycle_store"", ""sporting_goods_store"", ""restaurant"", ""point_of_interest"", ""store"", ""food"", ""establishment""]",3.7,253.0,PRICE_LEVEL_MODERATE
ChIJW3ePylE90xQRHHrOht0w2-0,Komagene Etsiz Çiğ Köfte,"Etimesgut, Atayurt, Toki Yapracık Konutları 25/A, 06815 Yenimahalle/Ankara, Türkiye",39.8430145,32.5452908,"[""restaurant"", ""turkish_restaurant"", ""cafe"", ""fast_food_restaurant"", ""food_store"", ""store"", ""food"", ""point_of_interest"", ""establishment""]",4.2,164.0,PRICE_LEVEL_MODERATE
ChIJZdBpbJQ-0xQRMO4qLnTpW6k,Starbucks,"Yaşamkent, Mehmet Rifat Börekçi Florium Konutları No: 6 Daire: 10, 06810 Çankaya/Ankara, Türkiye",39.8548677,32.6464504,"[""coffee_shop"", ""cafe"", ""food_store"", ""store"", ""food"", ""point_of_interest"", ""establishment""]",4.1,768.0,PRICE_LEVEL_MODERATE
ChIJ1SNhSFs50xQRQfgKHX_FeOU,Deli Pasta Cake Coffee Kitchen,"Alacaatlı, 3381. Sk. 59/6, 06810 Çankaya/Ankara, Türkiye",39.8496477,32.6516267,"[""cafe"", ""breakfast_restaurant"", ""coffee_shop"", ""bakery"", ""dessert_shop"", ""confectionery"", ""food_store"", ""store"", ""restaurant"", ""food"", ""point_of_interest"", ""establishment""]",4.1,318.0,PRICE_LEVEL_MODERATE
ChIJdy_3Ius-0xQRfBMrNy6komU,Masha Meshe,"Yaşamkent, 3158. Cd. 67 C, 06810 Yenimahalle/Ankara, Türkiye",39.8540069,32.6515132,"[""cafe"", ""food"", ""point_of_interest"", ""establishment""]",4.1,222.0,PRICE_LEVEL_MODERATE
ChIJs0D1LGk_0xQRnrfu0U8bIwo,Noww Croissants & Coffee Yaşamkent,"Yaşamkent Mah. 3222. Cad. Florium Konutları No: 6 Daire: 10, Yaşamkent, 06810 Çankaya/Ankara, Türkiye",39.854878,32.6465215,"[""cafe"", ""food"", ""point_of_interest"", ""establishment""]",4.4,480.0,PRICE_LEVEL_MODERATE
ChIJ9TXCeBw_0xQRyaUgC5Obh8g,Caffé di Toeé Beker Plaza,"Alacaatlı, 3381. Sk. No:42, 06810 Çankaya/Ankara, Türkiye",39.854003,32.6562358,"[""cafe"", ""food"", ""point_of_interest"", ""establishment""]",3.9,214.0,PRICE_LEVEL_MODERATE
ChIJ22kOCrU_0xQRAhtanWa-rpk,Zemhery Bakery,"Alacaatlı, Şht. Eren Bülbül Cad. No:42/B D:26-27, 06530 Çankaya/Ankara, Türkiye",39.8543472,32.656742,"[""dessert_shop"", ""confectionery"", ""point_of_interest"", ""bakery"", ""food_store"", ""store"", ""food"", ""establishment""]",3.9,187.0,PRICE_LEVEL_MODERATE
ChIJHfqU8JI_0xQRT18cyUSZVoY,Bülent Börekçilik Ankara Çankaya Alacaatlı,"Alacaatlı mahallesi 4841 cadde no:60/DK2, Alacaatlı, D:B, 06380 Çankaya/Ankara, Türkiye",39.8323232,32.6983482,"[""breakfast_restaurant"", ""bakery"", ""food_store"", ""cafe"", ""store"", ""restaurant"", ""food"", ""point_of_interest"", ""establishment""]",4.3,190.0,PRICE_LEVEL_MODERATE
ChIJN8xXiR8_0xQRx_RwMGkBpRY,Alacaatlı Pide Kebap,"102/C Alacaatlı Köyü Yolu, Çayyolu, Alacaatlı, 06810 Çankaya/Ankara, Türkiye",39.8493293,32.674642,"[""bakery"", ""food_store"", ""middle_eastern_restaurant"", ""store"", ""restaurant"", ""food"", ""point_of_interest"", ""establishment""]",4.0,201.0,PRICE_LEVEL_MODERATE
ChIJVV6qte0_0xQRbvbbpNN5WAU,GUA Coffee Company Beytepe,"Beytepe, Plevne Caddesi̇ No:11, 06800 Çankaya/Ankara, Türkiye",39.8495057,32.7054794,"[""coffee_shop"", ""food_store"", ""cafe"", ""store"", ""food"", ""point_of_interest"", ""establishment""]",4.3,226.0,PRICE_LEVEL_MODERATE
ChIJ37AHMDhP0xQRWIFelxxkHqU,Coffee 1919 Beytepe,"Beytepe, Plevne Caddesi No:9/7, 06800 Çankaya/Ankara, Türkiye",39.8493284,32.704511499999995,"[""coffee_shop"", ""food_store"", ""cafe"", ""store"", ""food"", ""point_of_interest"", ""establishment""]",4.4,153.0,PRICE_LEVEL_MODERATE
ChIJ6_V665hP0xQRYYH7-k3J8v8,Walker's Beytepe,"Beytepe, Plevne Cad No:5/4, 06800 Çankaya/Ankara, Türkiye",39.8496488,32.7063247,"[""coffee_shop"", ""food_store"", ""cafe"", ""store"", ""food"", ""point_of_interest"", ""establishment""]",4.0,226.0,PRICE_LEVEL_MODERATE
ChIJqQUljPNB0xQRBq4WDkuTJp4,Line Co. - Bulvar Loft,"Kızılcaşar Mahallesi Yavuz Sultan Selim Bulvarı Bulvar Loft Sitesi A2 Blok 180 7, Kızılcaşar, D:F, 06830 Gölbaşı/Ankara, Türkiye",39.8315859,32.7322961,"[""coffee_shop"", ""food_store"", ""cafe"", ""store"", ""food"", ""point_of_interest"", ""establishment""]",4.2,384.0,PRICE_LEVEL_MODERATE
ChIJrzyrW8w_0xQRvCJTAsuvcTY,Ata Hazar Fırın,"Alacaatlı, Kanuni Sultan Süleyman Blv No 124, 06810 Çankaya/Ankara, Türkiye",39.8318752,32.7084715,"[""bakery"", ""food_store"", ""store"", ""food"", ""point_of_interest"", ""establishment""]",4.3,270.0,PRICE_LEVEL_MODERATE
ChIJnRaoyYQ_0xQRjbdAk1Tgutk,Baraka Sanat Cafe,"Taşpınar, Incek Şht. Savcı Mehmet Selim Kiraz Blv No:38, 06830 Gölbaşı/Ankara, Türkiye",39.830883,32.7583163,"[""cafe"", ""food"", ""point_of_interest"", ""establishment""]",3.9,1157.0,PRICE_LEVEL_MODERATE
ChIJzZKJt1hB0xQRw0V5Ew0ZE40,Starbucks,"Kızılcaşar Mah. Yavuz Sultan Selim Cad, Kızılcaşar, Küme evleri No:406/43, 06830 Gölbaşı/Ankara, Türkiye",39.830345,32.734615,"[""coffee_shop"", ""cafe"", ""food_store"", ""store"", ""food"", ""point_of_interest"", ""establishment""]",3.9,325.0,PRICE_LEVEL_MODERATE
ChIJGTqHG8NH0xQRJufpkHyn-5A,Cafe de Suite,"Beytepe, 1790. Sk. 21A, 06800 Çankaya/Ankara, Türkiye",39.8518018,32.7575872,"[""cafe"", ""food"", ""point_of_interest"", ""establishment""]",4.0,104.0,PRICE_LEVEL_MODERATE
ChIJG-8B58RA0xQRvWlaU-_HVA0,Hazar Fırın,"Ahlatlıbel, Incek Şht. Savcı Mehmet Selim Kiraz Blv No:76/1, 06805 Çankaya/Ankara, Türkiye",39.8321051,32.7501709,"[""bakery"", ""food_store"", ""store"", ""food"", ""point_of_interest"", ""establishment""]",4.0,1027.0,PRICE_LEVEL_MODERATE
ChIJ5T_T2rZB0xQReyzu2thiDRk,Bilgin Pide,"Taşpınar, 2855. Cadde No:27/A, 06830 Gölbaşı/Ankara, Türkiye",39.8305687,32.7567235,"[""turkish_restaurant"", ""banquet_hall"", ""bakery"", ""event_venue"", ""food_store"", ""store"", ""middle_eastern_restaurant"", ""restaurant"", ""food"", ""point_of_interest"", ""establishment""]",4.1,374.0,PRICE_LEVEL_MODERATE
ChIJJyMVirlG0xQRu24B3PySjqg,Zabar Cafe,"Ahlatlıbel Mahallesi, Ahlatlıbel Atatürk Parkı İçi, Anayasa Mahkemesi Karşısı 152/12, Ahlatlıbel, 06830 Çankaya/Ankara, Türkiye",39.8418585,32.7914458,"[""cafe"", ""food"", ""point_of_interest"", ""establishment""]",3.7,454.0,PRICE_LEVEL_MODERATE
ChIJU_f7tjlE0xQRw8NdjFfW3uo,Starbucks,"Kuzu Effect, Oran, Zülfü Tiğrel Cd. No:1 K:1, 06550 Çankaya/Ankara, Türkiye",39.8472536,32.8281727,"[""coffee_shop"", ""food_store"", ""cafe"", ""store"", ""food"", ""point_of_interest"", ""establishment""]",4.2,419.0,PRICE_LEVEL_MODERATE
ChIJZ-8QBjBF0xQReFzSU3_N1jA,Baff Coffee,"KUZU EFFECT AVM, Oran, Zülfü Tiğrel Cd. No:1 D:5 - 27, 06550 Çankaya/Ankara, Türkiye",39.84605990000001,32.8286218,"[""coffee_shop"", ""food_store"", ""cafe"", ""store"", ""food"", ""point_of_interest"", ""establishment""]",4.4,154.0,PRICE_LEVEL_MODERATE
ChIJf3n4SgdF0xQR7oeD2IGbqkY,Lou Cafe Bistro - Kuzu Effect,"Oran, Zülfü Tiğrel Cd. No: 1, 06450 Çankaya/Ankara, Türkiye",39.8456399,32.8279331,"[""restaurant"", ""bar"", ""cafe"", ""food"", ""point_of_interest"", ""establishment""]",4.1,323.0,PRICE_LEVEL_MODERATE
ChIJD_D18UxE0xQRVaxeT7XYe_E,Kent Paten,"Oran, 631. Sk. No: 5 D:1, 06550 Çankaya/Ankara, Türkiye",39.8514091,32.838123,"[""ice_skating_rink"", ""sports_complex"", ""sporting_goods_store"", ""cafe"", ""store"", ""food"", ""sports_activity_location"", ""point_of_interest"", ""establishment""]",4.3,512.0,PRICE_LEVEL_MODERATE
ChIJWU4LvZRF0xQRXkKrB4C-Ebw,Çiftlik 56,"Yeşilkent, 9. Cd., 06705 Çankaya/Ankara, Türkiye",39.8405336,32.8621615,"[""restaurant"", ""garden"", ""breakfast_restaurant"", ""cafe"", ""park"", ""food"", ""point_of_interest"", ""establishment""]",4.0,497.0,PRICE_LEVEL_MODERATE
ChIJS_1BIgBF0xQRcrYjyD06flw,Sinpaş Altın Oran MADO,"İlkbahabar mahallesi, Güney Park Küme Evleri Altın Oran Çarşı 19B, İlkbahar, D:56, 06550 Çankaya/Ankara, Türkiye",39.847971,32.8568252,"[""cafe"", ""ice_cream_shop"", ""bakery"", ""dessert_shop"", ""confectionery"", ""food_store"", ""store"", ""food"", ""point_of_interest"", ""establishment""]",3.3,207.0,PRICE_LEVEL_EXPENSIVE
ChIJn782xfVE0xQRSZl3Wgc_Yzc,Bahçe Miss Eymir,"Dumlupınar, Eymir Gölü Yolu uzeri no 213, 06450 Çankaya/Ankara, Türkiye",39.8332909,32.8556616,"[""restaurant"", ""breakfast_restaurant"", ""cafe"", ""food"", ""point_of_interest"", ""establishment""]",4.4,633.0,PRICE_LEVEL_MODERATE
ChIJo60B2AFF0xQRSNSHCbKCCII,Starbucks,"Oran Mah. Turan Güneş Bulv, Sinpaş Altın Oran, İlkbahar, Galip Erdem Cd. No:54, 06550 Çankaya/Ankara, Türkiye",39.8476776,32.8567365,"[""coffee_shop"", ""food_store"", ""cafe"", ""store"", ""food"", ""point_of_interest"", ""establishment""]",4.2,380.0,PRICE_LEVEL_MODERATE
ChIJsVowSZ5F0xQRoXoD5SkoQfE,Çankaya Belediyesi Bülent Ecevit Buz Sporları Salonu,"Oran, 631. Sk. No: 5 D:1, 06550 Çankaya/Ankara, Türkiye",39.8513291,32.8380771,"[""ice_skating_rink"", ""sports_complex"", ""sporting_goods_store"", ""cafe"", ""store"", ""food"", ""sports_activity_location"", ""point_of_interest"", ""establishment""]",4.1,125.0,PRICE_LEVEL_MODERATE
ChIJ9Y7oGUlF0xQRCG2x-Yem8e8,FUNDA CAFE & PATİSSERİE,"Oran, Kudüs Cd. PANORA AVM No:3, 06450 Çankaya/Ankara, Türkiye",39.8480407,32.8334828,"[""dessert_shop"", ""confectionery"", ""point_of_interest"", ""bakery"", ""food_store"", ""store"", ""food"", ""establishment""]",4.0,343.0,PRICE_LEVEL_MODERATE
ChIJ1TuKb2FF0xQRF_BltpM55-4,Godiva Panora Avm,"Oran, 06450 Çankaya/Ankara, Türkiye",39.8479513,32.8316594,"[""dessert_shop"", ""confectionery"", ""point_of_interest"", ""bakery"", ""food_store"", ""store"", ""food"", ""establishment""]",4.0,160.0,PRICE_LEVEL_MODERATE
ChIJhfZ8BklE0xQRcZmhn8b1pMg,TARİHİ TAŞ FIRIN PİDE & PİZZA,"Panora, AVM, Oran, Turan Güneş Blv. D:182/230, 06450 Çankaya/Ankara, Türkiye",39.8483657,32.8332592,"[""fast_food_restaurant"", ""dessert_restaurant"", ""pizza_restaurant"", ""middle_eastern_restaurant"", ""restaurant"", ""point_of_interest"", ""bakery"", ""food_store"", ""store"", ""food"", ""establishment""]",3.6,129.0,PRICE_LEVEL_MODERATE
ChIJOwGiJaM-0xQRT5VZOgGicmU,gmo simitçii,"Yaşamkent, 06810 Çankaya/Ankara, Türkiye",39.8638153,32.6382532,"[""cafe"", ""point_of_interest"", ""food"", ""establishment""]",4.2,950.0,PRICE_LEVEL_MODERATE
ChIJ1U9X3fk_0xQRyXgBAAs8rV0,Mackbear Coffee CO. (Ankara / Yaşamkent),"Anka Meydan, Yaşamkent, 3250. Cd. No:26/C, 06705 Çankaya/Ankara, Türkiye",39.8583279,32.6362028,"[""cafe"", ""point_of_interest"", ""food"", ""establishment""]",4.5,258.0,PRICE_LEVEL_MODERATE
ChIJheSaWc8_0xQR-JFWneS5Rug,İnova Cafe Lounge,"Pelit Plaza, Yaşamkent, 3250. Cd. Yaşamkent Mah. Muhtarlığı No: 6/C D:F, 06810 Çankaya/Ankara, Türkiye",39.8669052,32.6398692,"[""cafe"", ""point_of_interest"", ""food"", ""establishment""]",4.3,167.0,PRICE_LEVEL_MODERATE
ChIJdZC55B4_0xQRu2IgCkBEzkQ,Come.pany Coffee,"Alacaatlı, Park Cd. 65/9, 06810 Çankaya/Ankara, Türkiye",39.8583873,32.6524156,"[""cafe"", ""art_gallery"", ""furniture_store"", ""home_improvement_store"", ""home_goods_store"", ""store"", ""food"", ""point_of_interest"", ""establishment""]",4.6,494.0,PRICE_LEVEL_MODERATE
ChIJd2FeZbU-0xQRYtF0AmVy1B4,Starbucks,"Kule Evo, Konutkent, 3028 Cd. 15. Km No: 16/A, 06810 Çankaya/Ankara, Türkiye",39.8740568,32.6492959,"[""coffee_shop"", ""cafe"", ""food_store"", ""store"", ""food"", ""point_of_interest"", ""establishment""]",4.1,615.0,PRICE_LEVEL_MODERATE
ChIJnXGHMZQ-0xQRjUq5fjugNgg,FUNDA CAFE&PATISSERIE yaşam kent,"Yaşamkent, Park İçi Yolu, 06810 Yenimahalle/Ankara, Türkiye",39.8558648,32.645672,"[""cafe"", ""food"", ""point_of_interest"", ""establishment""]",3.9,1151.0,PRICE_LEVEL_MODERATE
ChIJccRn1cc-0xQRhzQXJHNC85c,MOMMY MADE,"Yaşamkent Mahallesi 3158. Cadde, Yaşamkent, 3175. Sk. No:2, 06810 Çankaya/Ankara, Türkiye",39.8656006,32.653062,"[""deli"", ""dessert_shop"", ""confectionery"", ""point_of_interest"", ""bakery"", ""food_store"", ""store"", ""food"", ""establishment""]",4.5,526.0,PRICE_LEVEL_MODERATE
ChIJ8VAjzMc-0xQRNRd0Q961_R4,Simit Evi Unlu Mamulleri,"Yaşamkent, 3158. Cd. 51/a, 06810 Yenimahalle/Çankaya/Ankara, Türkiye",39.8648139,32.6529127,"[""bakery"", ""point_of_interest"", ""food_store"", ""store"", ""food"", ""establishment""]",4.2,315.0,PRICE_LEVEL_INEXPENSIVE
ChIJSVuwtr0-0xQRvK9W10eYPOE,Erciyes Börek,"Yaşamkent, 3245. Sokak and 3222. Caddesi 16/15, 06810 Yenimahalle/Çankaya/Ankara, Türkiye",39.8616218,32.6430969,"[""restaurant"", ""point_of_interest"", ""bakery"", ""food_store"", ""store"", ""food"", ""establishment""]",4.0,105.0,PRICE_LEVEL_MODERATE
ChIJS5RA3rs40xQRK3sGw2akOb0,Liva,"Prof. Dr. Ahmet Taner Kışlalı, Kanuni Sultan Süleyman Blv No:154 / 1, 06810 Çankaya/Ankara, Türkiye",39.8724347,32.7015245,"[""bakery"", ""breakfast_restaurant"", ""dessert_shop"", ""confectionery"", ""food_store"", ""restaurant"", ""store"", ""food"", ""point_of_interest"", ""establishment""]",3.3,2700.0,PRICE_LEVEL_EXPENSIVE
ChIJJ-mnN0U50xQRia_OsBeVYJ0,Çayyolu Balkon Cafe,"Prof. Dr. Ahmet Taner Kışlalı Mah, Çayyolu, 2853. Cd. No:3/B, 06300 Çankaya/Ankara, Türkiye",39.8772641,32.6790717,"[""cafe"", ""breakfast_restaurant"", ""restaurant"", ""food"", ""point_of_interest"", ""establishment""]",4.0,1161.0,PRICE_LEVEL_MODERATE
ChIJI-lLEs840xQRgJoPp8I4n0k,Roko Dondurma & Kahve,"Ankara!nn. !! Nne!!3, Prof. Dr. Ahmet Taner Kışlalı, Alacaatlı Cd., 06810 Çankaya/Ankara, Türkiye",39.8718268,32.6879525,"[""ice_cream_shop"", ""cafe"", ""dessert_shop"", ""confectionery"", ""food_store"", ""store"", ""food"", ""point_of_interest"", ""establishment""]",4.4,1800.0,PRICE_LEVEL_MODERATE
ChIJP_ZiSNY40xQRDNkKo9xzMnU,G.M.O. Simitçi Kafe,"Prof. Dr. Ahmet Taner Kışlalı, Silifke Sk. No:4, 06810 Çankaya/Ankara, Türkiye",39.8743744,32.6744194,"[""cafe"", ""food"", ""point_of_interest"", ""establishment""]",4.0,1527.0,PRICE_LEVEL_INEXPENSIVE
ChIJ6yjWdoo50xQROJPq6UNZtH4,No29 DÜKKAN,"Prof. Dr. Ahmet Taner Kışlalı Mah 2866. Sokak No:29/D Çankaya, Prof. Dr. Ahmet Taner Kışlalı, 06810 Ümitköy/Ankara, Türkiye",39.8713136,32.6805836,"[""coffee_shop"", ""cafe"", ""jewelry_store"", ""food_store"", ""store"", ""food"", ""point_of_interest"", ""establishment""]",4.6,430.0,PRICE_LEVEL_MODERATE
ChIJ4_r9pMU40xQRT_t2laM2x3A,Zahire Pastanesi Çayyolu,"Prof. Dr. Ahmet Taner Kışlalı, Bangabandhu Blv. No:94/14, 06530 Çankaya/Ankara, Türkiye",39.8749266,32.6872719,"[""bakery"", ""dessert_shop"", ""confectionery"", ""food_store"", ""store"", ""food"", ""point_of_interest"", ""establishment""]",4.4,2314.0,PRICE_LEVEL_MODERATE
ChIJr3nNsiY_0xQRolly4LhLhRM,BABKA FIRIN,"Alacaatlı, 3381. Sk. No: 2C, 06810 Çankaya/Ankara, Türkiye",39.8606213,32.6771466,"[""bakery"", ""food_store"", ""store"", ""food"", ""point_of_interest"", ""establishment""]",3.9,872.0,PRICE_LEVEL_MODERATE
ChIJZwBQfdE40xQRcGmvBqKa4Wc,Peony,"Prof. Dr. Ahmet Taner Kışlalı Mah, Yenimahalle, 2864. Cd. No:36, 06810 Çankaya/Ankara, Türkiye",39.8706933,32.680802199999995,"[""bakery"", ""dessert_shop"", ""confectionery"", ""food_store"", ""store"", ""food"", ""point_of_interest"", ""establishment""]",3.9,311.0,PRICE_LEVEL_VERY_EXPENSIVE
ChIJnXZFSy8_0xQREaE49xSlVB4,Hazar Unlu Mamulleri,"Alacaatlı, Ümitköy Alacaatlı Köyü Kooperatifi Yolu No:62, 06810 Yenimahalle/Ankara, Türkiye",39.8582326,32.6785278,"[""bakery"", ""food_store"", ""store"", ""restaurant"", ""food"", ""point_of_interest"", ""establishment""]",4.0,367.0,PRICE_LEVEL_MODERATE
ChIJU_h4BeNP0xQRPN3bzYcMwRM,Farro Artisan Bakery Çayyolu,"Prof. Dr. Ahmet Taner Kışlalı, 2857. Sk. No: 8, 06810 Çankaya/Ankara, Türkiye",39.87363620000001,32.6842148,"[""bakery"", ""food_store"", ""store"", ""food"", ""point_of_interest"", ""establishment""]",4.4,191.0,PRICE_LEVEL_MODERATE
ChIJv5RPEgs50xQRVluGbOfpB8k,Nacaroğlu Baklava Künefe Katmer Kahvaltı Yaş Pasta Çayyolu,"Prof. Dr. Ahmet Taner Kışlalı, Bangabandhu Blv. No:94, 06810, 06810 Yenimahalle/Ankara, Türkiye",39.8755614,32.6869702,"[""dessert_restaurant"", ""ice_cream_shop"", ""breakfast_restaurant"", ""bagel_shop"", ""bakery"", ""dessert_shop"", ""confectionery"", ""food_store"", ""store"", ""restaurant"", ""food"", ""point_of_interest"", ""establishment""]",3.9,409.0,PRICE_LEVEL_MODERATE
ChIJtaJRGn850xQRN1oXWnju-gI,Kvass Bakery & Coffee,"Alacaatlı, 3309. Sk. No:2, 06810 Çankaya/Ankara, Türkiye",39.8619401,32.6821967,"[""bakery"", ""cafe"", ""food_store"", ""store"", ""food"", ""point_of_interest"", ""establishment""]",4.5,192.0,PRICE_LEVEL_MODERATE
ChIJg3cTs_ZN0xQRsjlisl9HxF0,DESSONI | MUTFAK & BANYO ÇAYYOLU MAĞAZASI,"Alacaatlı, Şht. Eren Bülbül Cad. 4912 sok No: 1/3, 06360 Çankaya/Ankara, Türkiye",39.8596227,32.6751253,"[""furniture_store"", ""bakery"", ""home_improvement_store"", ""home_goods_store"", ""wholesaler"", ""food_store"", ""store"", ""general_contractor"", ""food"", ""point_of_interest"", ""establishment""]",5.0,120.0,PRICE_LEVEL_MODERATE
ChIJ3a6D_wg50xQRkDMYkZthJ_4,ON&F Kütüphane & Cafe,"Park cad, Prof. Dr. Ahmet Taner Kışlalı, 2870. Sk. No:3/2, 06810 Çankaya/Ankara, Türkiye",39.8711361,32.6824503,"[""library"", ""cafe"", ""food"", ""point_of_interest"", ""establishment""]",4.0,115.0,PRICE_LEVEL_MODERATE
ChIJ8dtX6zg50xQRVUS_0aUY9mM,Touyou,"Çayyolu, S. Saltoğlu Blv. No:209 D:23, 06810 Çankaya/Ankara, Türkiye",39.8775267,32.7054305,"[""coffee_shop"", ""dessert_shop"", ""confectionery"", ""japanese_restaurant"", ""cafe"", ""food_store"", ""store"", ""restaurant"", ""food"", ""point_of_interest"", ""establishment""]",4.0,429.0,PRICE_LEVEL_MODERATE
ChIJGeRLrM850xQRKOtfdDr1Fy4,Velo Bowl&Coffee,"Velo Cafe bowl & Coffee, Beytepe, Beyler Cd. No:136 D:2, 06520 Çankaya/Ankara, Türkiye",39.8642868,32.7020824,"[""cafe"", ""food"", ""point_of_interest"", ""establishment""]",4.6,137.0,PRICE_LEVEL_MODERATE
ChIJmSEs_ZQ50xQRWZILdGzg4-M,Simple Chocolate & Breakfast Beytepe,"Beytepe, 5388 SK Kapı No:1 C/57, 06800 Çankaya/Ankara, Türkiye",39.8609693,32.71216450000001,"[""cafe"", ""food"", ""point_of_interest"", ""establishment""]",4.6,651.0,PRICE_LEVEL_MODERATE
ChIJWSHd_lRJ0xQRSCU5cfg5yKA,Croissant & Co. Beytepe,"Beytepe, 5388 Sk No: 1C İç Kapı No: 26, 06800 Çankaya/Ankara, Türkiye",39.86091950000001,32.7118886,"[""cafe"", ""food"", ""point_of_interest"", ""establishment""]",3.4,156.0,PRICE_LEVEL_MODERATE
ChIJl-hxjZc40xQRKyuaoxogn24,Starbucks,"Çayyolu, Angora Cad Beysupark Yaşam Merkezi No:209 K:1, 06810 Çankaya/Ankara, Türkiye",39.8783702,32.7076273,"[""coffee_shop"", ""cafe"", ""food_store"", ""store"", ""food"", ""point_of_interest"", ""establishment""]",4.0,305.0,PRICE_LEVEL_MODERATE
ChIJCzlOnB450xQRyyFT7RdYZGY,Starbucks,"Çayyolu, 2693. Sk. No:5, 06810 Çankaya/Ankara, Türkiye",39.8782738,32.707615,"[""coffee_shop"", ""cafe"", ""food_store"", ""store"", ""food"", ""point_of_interest"", ""establishment""]",4.4,427.0,PRICE_LEVEL_MODERATE
ChIJJxEHkOQ50xQRYXsQziVl-Ds,Bambino Mia Fırın,"Beytepe mahallesi kanuni sultan süleyman bulvarı, Beytepe, 5387.Cd. no:15 B1 blk, 06800 Çankaya/Ankara, Türkiye",39.8621013,32.7116834,"[""bakery"", ""food_store"", ""store"", ""food"", ""point_of_interest"", ""establishment""]",4.1,402.0,PRICE_LEVEL_MODERATE
ChIJtdjJKmhH0xQRTNa7PfkFOZQ,Simitçi world - Hacettepe,"Üniversiteler, 1596 Cad. 26/17, 06800 Çankaya/Ankara, Türkiye",39.8683882,32.7322251,"[""bagel_shop"", ""bakery"", ""food_store"", ""store"", ""food"", ""point_of_interest"", ""establishment""]",3.7,100.0,PRICE_LEVEL_MODERATE
ChIJ7z-q3eFG0xQRzeSz4QWwC8M,Golden Pavilion Museum,"Üniversiteler, İhsan Doğramacı Blv No:39, 06800 Çankaya/Ankara, Türkiye",39.861596,32.7642269,"[""visitor_center"", ""tourist_information_center"", ""cafe"", ""event_venue"", ""museum"", ""french_restaurant"", ""tour_agency"", ""travel_agency"", ""restaurant"", ""point_of_interest"", ""food"", ""establishment""]",4.1,938.0,PRICE_LEVEL_MODERATE
ChIJrRVH7yBP0xQRhoYYOAdZC1s,Masalhane,"Beytepe, Şht. Jnd. Astğmn. Mustafa Tayyarcan Cd. Küme Evler 11/A, 06800 Çankaya/Ankara, Türkiye",39.8568264,32.7405384,"[""coffee_shop"", ""cafe"", ""home_goods_store"", ""point_of_interest"", ""food_store"", ""store"", ""food"", ""establishment""]",4.9,279.0,PRICE_LEVEL_MODERATE
ChIJ_9cvj2hH0xQR68x1Y9vGbXc,Çatı Açık Büfe,"Üniversiteler Mah. Hacettepe Üniversitesi, Beytepe Kampüsü Parlar Öğrenci Yurdu girişi, Üniversiteler, 06800 Çankaya/Ankara, Türkiye",39.8715574,32.7303328,"[""cafeteria"", ""breakfast_restaurant"", ""cafe"", ""restaurant"", ""point_of_interest"", ""food"", ""establishment""]",4.4,515.0,PRICE_LEVEL_MODERATE
ChIJJUo-wSNH0xQR9nKtjsM_GKs,Chiffre Cafe & Nargile,"Ufuk İş Merkezi, Üniversiteler, Bilkent 3 Ufuk sitesi No:8, 06800 Çankaya/Ankara, Türkiye",39.8571034,32.7559621,"[""restaurant"", ""cafe"", ""point_of_interest"", ""food"", ""establishment""]",4.0,110.0,PRICE_LEVEL_MODERATE
ChIJNWk5Y9BH0xQRb3QQWcgLhLg,Çatı Açık Büfe,"Kampus 81-82. Yurtlar, Üniversiteler, Bilkent Üniversitesi Merkez Giriş Katı, 06800 Çankaya/Ankara, Türkiye",39.8636606,32.7469168,"[""cafeteria"", ""cafe"", ""point_of_interest"", ""food"", ""establishment""]",4.5,234.0,PRICE_LEVEL_MODERATE
ChIJ80oxMRFH0xQR614XSsfxZmo,Coffee Break,"Üniversiteler, 06800 Çankaya/Ankara, Türkiye",39.8682034,32.7491263,"[""coffee_shop"", ""cafe"", ""point_of_interest"", ""food_store"", ""store"", ""food"", ""establishment""]",4.3,242.0,PRICE_LEVEL_MODERATE
ChIJfQSn_BZH0xQRkyAQf40LzPo,Starbucks,"Bilkent University, Üniversiteler, Bilkent 8. Cd. Güzel Sanatlar Fakültesi No:52, 06800 Çankaya/Ankara, Türkiye",39.8667909,32.7493493,"[""coffee_shop"", ""cafe"", ""point_of_interest"", ""food_store"", ""store"", ""food"", ""establishment""]",4.0,180.0,PRICE_LEVEL_MODERATE
ChIJcxcYqvFH0xQR0_7RkMis8eo,Miamoy Cafe Bistro Fırın,"Beytepe, Ertuğrul Gazi Blv No:29/C, 06800 Çankaya/Ankara, Türkiye",39.8549913,32.7338642,"[""dessert_shop"", ""confectionery"", ""cafe"", ""restaurant"", ""point_of_interest"", ""bakery"", ""food_store"", ""store"", ""food"", ""establishment""]",4.2,130.0,PRICE_LEVEL_MODERATE
ChIJU2gtPBFH0xQR74bx4-vZJDA,Mozart Cafe,"bilkent üniversitesi merkez kampüs hukuk fakültesi,Bilgisayar Merkezi, Üniversiteler, 06800 Çankaya/Ankara, Türkiye",39.8687489,32.7480554,"[""cafeteria"", ""sandwich_shop"", ""coffee_shop"", ""dessert_shop"", ""confectionery"", ""vegan_restaurant"", ""vegetarian_restaurant"", ""cafe"", ""restaurant"", ""point_of_interest"", ""bakery"", ""food_store"", ""store"", ""food"", ""establishment""]",4.4,155.0,PRICE_LEVEL_MODERATE
ChIJjfduK0lH0xQRC3wPkeuE7Rw,Sözeri Fırın,"Beytepe, Hasan Kılavuz Cd., 06800 Çankaya/Ankara, Türkiye",39.8556916,32.7351434,"[""supermarket"", ""grocery_store"", ""point_of_interest"", ""bagel_shop"", ""bakery"", ""food_store"", ""store"", ""food"", ""establishment""]",4.0,131.0,PRICE_LEVEL_MODERATE
ChIJF--zGrRP0xQRitDPI25pG7k,Mackbear Coffee,"KEKLİK PINARI MAH. DİKMEN CADDESİ 906 SK, DİKMEN, Keklik Pınarı, 06450 Çankaya/Ankara, Türkiye",39.866807,32.821815,"[""coffee_shop"", ""cafe"", ""food_store"", ""store"", ""food"", ""point_of_interest"", ""establishment""]",4.1,413.0,PRICE_LEVEL_MODERATE
ChIJJ6iGH95F0xQRVJfq4UAuLjo,Gökkuşağı Pastanesi,"Cevizlidere, Gökkuşağı Cd. No:41 D:C, 06520 Çankaya/Ankara, Türkiye",39.8795447,32.8127278,"[""bakery"", ""dessert_shop"", ""confectionery"", ""food_store"", ""restaurant"", ""store"", ""food"", ""point_of_interest"", ""establishment""]",4.2,721.0,PRICE_LEVEL_MODERATE
ChIJmYmNt9NF0xQRg9F4DL_ec4o,Ada Sofrası Pide & Lahmacun,"Huzur, Lizbon Cd. No:144, 06460 Çankaya/Ankara, Türkiye",39.873387,32.823471,"[""turkish_restaurant"", ""cafe"", ""pizza_restaurant"", ""middle_eastern_restaurant"", ""fast_food_restaurant"", ""restaurant"", ""food"", ""point_of_interest"", ""establishment""]",4.8,335.0,PRICE_LEVEL_MODERATE
ChIJgYsBsLJF0xQRqhLwyVLCROg,Kupa Coffee Co. Dikmen,"Huzur, Dikmen Cd No:404, 06450 Çankaya/Ankara, Türkiye",39.867789,32.822407,"[""coffee_shop"", ""cafe"", ""food_store"", ""store"", ""food"", ""point_of_interest"", ""establishment""]",4.2,145.0,PRICE_LEVEL_MODERATE
ChIJGedfeLNF0xQRRzuWzVL8Ne8,Saraylı Victoria Pastanesi Dikmen,"Karapınar, Dikmen Cd 424/A, 06450 Çankaya/Ankara, Türkiye",39.866538,32.820188,"[""cafe"", ""catering_service"", ""food_delivery"", ""bakery"", ""dessert_shop"", ""confectionery"", ""food_store"", ""restaurant"", ""store"", ""food"", ""point_of_interest"", ""establishment""]",4.2,422.0,PRICE_LEVEL_MODERATE
ChIJhSFZTKJF0xQR4OQSBbDM3Ew,Arabica Coffee House,"Keklik Pınarı, 06450 Çankaya/Ankara, Türkiye",39.8668379,32.8218533,"[""cafe"", ""food"", ""point_of_interest"", ""establishment""]",4.1,565.0,PRICE_LEVEL_MODERATE
ChIJN-tfW8JF0xQRvwQOWlftSHM,Mora pastaneleri,"Huzur, Lizbon Cd. No 130, 06460 Çankaya/Ankara, Türkiye",39.8745747,32.8228944,"[""cafe"", ""bakery"", ""dessert_shop"", ""confectionery"", ""food_store"", ""wholesaler"", ""store"", ""food"", ""point_of_interest"", ""establishment""]",4.2,232.0,PRICE_LEVEL_MODERATE
ChIJy1YAi25F0xQRuzdoMr-WNnM,Altın Ata Ekmek Fırını,"Keklik Pınarı, 06450 Çankaya/Ankara, Türkiye",39.8653931,32.8196665,"[""bakery"", ""food_store"", ""store"", ""food"", ""point_of_interest"", ""establishment""]",4.4,233.0,PRICE_LEVEL_MODERATE
ChIJU4hS0OdF0xQRp8xunaTZYqs,Misbaşak Keklik,"keklikpınarı mahalesi 906 sokak Dblok no 3, Keklik Pınarı, D:7, 06530 Çankaya/Ankara, Türkiye",39.8663779,32.820973599999995,"[""bakery"", ""breakfast_restaurant"", ""food_store"", ""store"", ""restaurant"", ""food"", ""point_of_interest"", ""establishment""]",3.7,429.0,PRICE_LEVEL_MODERATE
ChIJj7uUtx5F0xQRR89Lphm5ZWU,Bülent Börekçilik Ankara Çankaya Keklikpınarı,"Keklikpınarı mahallesi Dikmen Caddesi 906. Sokak, Keklik Pınarı, 1071 Manzara Evleri 3D No.23, 06450 Çankaya/Ankara, Türkiye",39.8670356,32.8221914,"[""bakery"", ""food_store"", ""store"", ""food"", ""point_of_interest"", ""establishment""]",4.3,165.0,PRICE_LEVEL_MODERATE
ChIJf3mSuthO0xQRTxQWmRkiTRI,Liva Pastanesi,"Hilal, 702. Sk. No:7/7, 06810 Çankaya/Ankara, Türkiye",39.869965,32.8577706,"[""chocolate_shop"", ""breakfast_restaurant"", ""candy_store"", ""dessert_shop"", ""confectionery"", ""cafe"", ""restaurant"", ""point_of_interest"", ""bakery"", ""food_store"", ""store"", ""food"", ""establishment""]",3.7,2136.0,PRICE_LEVEL_EXPENSIVE
ChIJaUJ4n3ZF0xQRwbXcoG5GGrU,Hound Coffee & Eatery,"Hilal, 702. Sk. 5/B, 06550 Çankaya/Ankara, Türkiye",39.8700131,32.858214,"[""coffee_shop"", ""cafe"", ""point_of_interest"", ""food_store"", ""store"", ""food"", ""establishment""]",4.3,911.0,PRICE_LEVEL_MODERATE
ChIJaQ_yApdF0xQRiXQZLckJUKw,Gordon Pastanesi,"Osman Temiz, İlker Cd. No:31, 06450 Çankaya/Ankara, Türkiye",39.8739741,32.8396096,"[""dessert_shop"", ""confectionery"", ""restaurant"", ""point_of_interest"", ""bakery"", ""food_store"", ""store"", ""food"", ""establishment""]",4.2,896.0,PRICE_LEVEL_MODERATE
ChIJq1xRU3ZF0xQRrZ4_zRWk29w,Bambino Fırın Hilal,"Hilal, Cezayir Cd. no:44, 06550 Çankaya/Ankara, Türkiye",39.8727801,32.8532477,"[""bakery"", ""cafe"", ""point_of_interest"", ""food_store"", ""store"", ""food"", ""establishment""]",4.3,598.0,PRICE_LEVEL_MODERATE
ChIJT3DS-W5F0xQRyfakNXxV2FE,Muse Local Artisan,"İlkbahar Mh, Yıldız, 592. Sk. 8/B, 06540 Çankaya/Ankara, Türkiye",39.865048,32.859336,"[""cafe"", ""point_of_interest"", ""food"", ""establishment""]",4.6,296.0,PRICE_LEVEL_MODERATE
ChIJzaMuT7dF0xQRLW51d4AFhSI,Ali Baba Pastanesi,"128/A, Mürsel Uluç, İlker Cd., 06450 Çankaya/Ankara, Türkiye",39.8619517,32.8359005,"[""bakery"", ""dessert_shop"", ""confectionery"", ""food_store"", ""store"", ""food"", ""point_of_interest"", ""establishment""]",4.4,144.0,PRICE_LEVEL_MODERATE
ChIJU5h8P71F0xQRw5Q14SYoG8o,İlker Fırını,"Metin Akkuş, İlker Cd. No:81, 06450 Çankaya/Ankara, Türkiye",39.8696128,32.841250800000005,"[""bakery"", ""food_store"", ""store"", ""food"", ""point_of_interest"", ""establishment""]",4.5,254.0,PRICE_LEVEL_INEXPENSIVE
ChIJrRmpfklF0xQR6EtQyAK3KGo,Atayurt Fırın Pastane Cafe Bistro (Sinpaş Şube),"İlkbahar, Galip Erdem Cd. No:11, 06530 Çankaya/Ankara, Türkiye",39.856127,32.853459,"[""bakery"", ""dessert_shop"", ""confectionery"", ""food_store"", ""store"", ""restaurant"", ""food"", ""point_of_interest"", ""establishment""]",3.9,400.0,PRICE_LEVEL_MODERATE
ChIJC3VMUBNF0xQRi_HQrOPOAz0,Chefmade Chocolatier & Coffee House / Kahve Çikolata Kahvaltı,"Hilal, 695. Sk. No:1, 06550 Çankaya/Ankara, Türkiye",39.8685609,32.8559987,"[""coffee_shop"", ""sandwich_shop"", ""breakfast_restaurant"", ""bakery"", ""chocolate_shop"", ""dessert_shop"", ""candy_store"", ""confectionery"", ""cafe"", ""food_store"", ""store"", ""restaurant"", ""food"", ""point_of_interest"", ""establishment""]",4.7,395.0,PRICE_LEVEL_MODERATE
ChIJE8wYT3JF0xQRLhOnxVnq3G0,Elzen Patisserie,"İlkbahar, Doğukent Cd. No:733, 06530 Çankaya/Ankara, Türkiye",39.8607992,32.8569128,"[""bakery"", ""dessert_shop"", ""confectionery"", ""food_store"", ""store"", ""food"", ""point_of_interest"", ""establishment""]",3.8,198.0,PRICE_LEVEL_MODERATE
ChIJ43gJgpdF0xQRAVwNlH5kwwc,Misbaşak - İlker Caddesi,"50, Naci Çakır, İlker Cd., 06450 Çankaya/Ankara, Türkiye",39.8727406,32.8416724,"[""bakery"", ""food_store"", ""store"", ""food"", ""point_of_interest"", ""establishment""]",4.7,1429.0,PRICE_LEVEL_MODERATE
ChIJL7V8z3ZF0xQR2EIAteWxQOM,Cumhuriyet,"Hilal, 673. Sk. No:7 D:C, 06550 Çankaya/Ankara, Türkiye",39.8711638,32.8586376,"[""bakery"", ""cafe"", ""food_store"", ""store"", ""food"", ""point_of_interest"", ""establishment""]",4.3,243.0,PRICE_LEVEL_MODERATE
ChIJP-T_jbdF0xQRvsGdcAHR4A0,Yunusemre Baked Goods,"Mürsel Uluç, 931. Cd. 77/A-B, 06450 Çankaya/Ankara, Türkiye",39.8635697,32.8327292,"[""bakery"", ""food_store"", ""store"", ""food"", ""point_of_interest"", ""establishment""]",3.8,326.0,PRICE_LEVEL_MODERATE
ChIJK1QHXjBF0xQRog-cTIg2_AA,Bülent Börekçilik Ankara Çankaya İlkbahar,"İlkbahar, Turan Güneş Blv. No:69/B, 06530 Çankaya/Ankara, Türkiye",39.864868,32.8578779,"[""bakery"", ""food_store"", ""store"", ""food"", ""point_of_interest"", ""establishment""]",4.2,163.0,PRICE_LEVEL_MODERATE
ChIJgTHu9XpF0xQRZa-8Z7OODZI,Çıtır Simit Fırın Ve Unlu Mamüller,"Aydınlar, Sokullu Mehmet Paşa Cd. no: 163/B, 06530 Çankaya/Ankara, Türkiye",39.8769655,32.8318564,"[""bakery"", ""bagel_shop"", ""food_store"", ""store"", ""food"", ""point_of_interest"", ""establishment""]",4.5,125.0,PRICE_LEVEL_INEXPENSIVE
ChIJTSxKCUxF0xQR_sZf-HhyOlo,Hacı ismailoğlu Dikmen Şube,"Ata, Dikmen Cd No:362, 06460 Çankaya/Ankara, Türkiye",39.871412,32.829635,"[""dessert_restaurant"", ""ice_cream_shop"", ""bakery"", ""dessert_shop"", ""confectionery"", ""food_store"", ""store"", ""restaurant"", ""food"", ""point_of_interest"", ""establishment""]",3.8,145.0,PRICE_LEVEL_MODERATE
ChIJDdSKdDZF0xQR1PWS0VYj7Q0,yorgun's cafe,"Sancak, Tiflis Cd. 20B, 06550 Çankaya/Ankara, Türkiye",39.874070200000006,32.8642748,"[""cafe"", ""breakfast_restaurant"", ""turkish_restaurant"", ""bakery"", ""confectionery"", ""food_store"", ""store"", ""restaurant"", ""food"", ""point_of_interest"", ""establishment""]",4.6,738.0,PRICE_LEVEL_MODERATE
ChIJXQs7tZdF0xQR2mzMRfQFlFU,Coffee 1919 Birlik,"Birlik Mah. 451. Cad. No:13 BA-BB, Birlik, 06610 Çankaya/Ankara, Türkiye",39.8738959,32.8769658,"[""coffee_shop"", ""food_store"", ""cafe"", ""store"", ""food"", ""point_of_interest"", ""establishment""]",4.4,209.0,PRICE_LEVEL_MODERATE
ChIJBVpTqntF0xQRQTOyVBArVF8,Bambino Bakery,"Yıldızevler, 713. Sk. 7/A, 06550 Çankaya/Ankara, Türkiye",39.87569310000001,32.8617569,"[""bakery"", ""point_of_interest"", ""food_store"", ""store"", ""food"", ""establishment""]",4.2,255.0,PRICE_LEVEL_MODERATE
ChIJTUjIV3tF0xQRLtPmSoeDfXs,Mis Başak,"Sancak, Turan Güneş Blv. No:11 D:C, 06550 Çankaya/Ankara, Türkiye",39.8764033,32.8641904,"[""dessert_shop"", ""confectionery"", ""point_of_interest"", ""bakery"", ""food_store"", ""store"", ""food"", ""establishment""]",4.0,381.0,PRICE_LEVEL_MODERATE
ChIJJfBWYatF0xQRuzpu2zVSt_I,Angora Patisserie,"Yıldızevler, Turan Güneş Blv. No:42, 06145 Çankaya/Ankara, Türkiye",39.8727778,32.8613889,"[""cafeteria"", ""dessert_shop"", ""confectionery"", ""cafe"", ""point_of_interest"", ""bakery"", ""food_store"", ""store"", ""food"", ""establishment""]",4.0,369.0,PRICE_LEVEL_MODERATE
ChIJEdXph3pF0xQRSP_LLT9h160,Pastannecim Turan Güneş,"Yıldızevler, Turan Güneş Blv. No:36 D:19, 06550 Çankaya/Ankara, Türkiye",39.8736059,32.861981300000004,"[""meal_delivery"", ""food_delivery"", ""dessert_shop"", ""confectionery"", ""cafe"", ""point_of_interest"", ""bakery"", ""food_store"", ""store"", ""food"", ""establishment""]",4.0,288.0,PRICE_LEVEL_MODERATE
ChIJ183lT2BF0xQRTHyNxFaKThY,Seç Baklava,"Sancak, Turan Güneş Blv. Şahinler Sitesi No:39/C B Blok, 06550 Çankaya/Ankara, Türkiye",39.8711705,32.8610946,"[""dessert_shop"", ""confectionery"", ""point_of_interest"", ""bakery"", ""food_store"", ""store"", ""food"", ""establishment""]",3.8,114.0,PRICE_LEVEL_MODERATE
ChIJJfBWYatF0xQRP5juGFJwu74,İnka Pastanesi,"Yıldızevler, Turan Güneş Blv. 9/A, 06550 Çankaya/Ankara, Türkiye",39.8768737,32.8642962,"[""dessert_shop"", ""confectionery"", ""point_of_interest"", ""bakery"", ""food_store"", ""store"", ""food"", ""establishment""]",4.3,156.0,PRICE_LEVEL_MODERATE
ChIJZ5AuCfZP0xQRubBkDyRpbVg,Çıtır Simit Cafe,"Birlik, 450. Cadde 39/A, 06550 Çankaya/Ankara, Türkiye",39.8769963,32.8821282,"[""bagel_shop"", ""point_of_interest"", ""bakery"", ""food_store"", ""store"", ""food"", ""establishment""]",4.2,172.0,PRICE_LEVEL_MODERATE
ChIJFSuasC1F0xQR3oI3SrmUTVM,Sena Buğday Unlu Mamüller,"Sancak, Kahire Cd. No:40/B, 06550 Çankaya/Ankara, Türkiye",39.8711537,32.8669082,"[""bakery"", ""cafe"", ""point_of_interest"", ""food_store"", ""store"", ""food"", ""establishment""]",4.4,150.0,PRICE_LEVEL_MODERATE
ChIJKVitf4pP0xQRAtzF0VxWvrI,Erciyes Börek Çankaya Birlik,"Birlik, Podgoritsa Cd No:10, 06610 Çankaya/Ankara, Türkiye",39.879032,32.87317900000001,"[""dessert_restaurant"", ""dessert_shop"", ""confectionery"", ""restaurant"", ""point_of_interest"", ""bakery"", ""food_store"", ""store"", ""food"", ""establishment""]",3.6,127.0,PRICE_LEVEL_MODERATE
ChIJdbfsXmg70xQRU1XjkCFbr88,Te-Ora Cafe Bistro Fırın,"Bağlıca, Bağlıca Blv. No:104, 06790 Etimesgut/Ankara, Türkiye",39.8911144,32.6234002,"[""restaurant"", ""garden"", ""cafeteria"", ""bakery"", ""tea_house"", ""food_store"", ""park"", ""store"", ""food"", ""point_of_interest"", ""establishment""]",3.8,221.0,PRICE_LEVEL_MODERATE
ChIJs9767Ss50xQRnH-GPxGcFWE,Kocatepe Coffee 1919 Bağlıca,"Bağlıca, Etimesgut Blv. No:75/1, 06790 Etimesgut/Ankara, Türkiye",39.8992614,32.6468467,"[""coffee_shop"", ""cafe"", ""point_of_interest"", ""food_store"", ""store"", ""food"", ""establishment""]",4.1,461.0,PRICE_LEVEL_MODERATE
ChIJs8A_hSo50xQRMaEwAbctGTM,Kornet Dondurma Waffle,"Bağlıca, Etimesgut Blv. A blok No:91/17, 06790 Etimesgut/Ankara, Türkiye",39.8948378,32.64778390000001,"[""ice_cream_shop"", ""chocolate_shop"", ""candy_store"", ""cafeteria"", ""coffee_shop"", ""dessert_shop"", ""confectionery"", ""tea_house"", ""cafe"", ""lodging"", ""point_of_interest"", ""food_store"", ""store"", ""food"", ""establishment""]",4.6,279.0,PRICE_LEVEL_MODERATE
ChIJDWeJg2k50xQRQieQLfd0izE,Oskar Patisserie,"Bağlıca, Bağlıca Blv. No:60/A, 06790 Etimesgut/Ankara, Türkiye",39.8979906,32.6440459,"[""breakfast_restaurant"", ""dessert_shop"", ""confectionery"", ""cafe"", ""restaurant"", ""point_of_interest"", ""bakery"", ""food_store"", ""store"", ""food"", ""establishment""]",3.8,1603.0,PRICE_LEVEL_MODERATE
ChIJSbQcDEI50xQRuJxrpbhtDFA,1919 Kahve Evi Bağlıca,"Bağlıca, Bağlıca Blv. No:61-E-A, 06790 Etimesgut/Ankara, Türkiye",39.8974689,32.639595,"[""coffee_shop"", ""fine_dining_restaurant"", ""cafe"", ""restaurant"", ""point_of_interest"", ""food_store"", ""store"", ""food"", ""establishment""]",4.4,180.0,PRICE_LEVEL_MODERATE
ChIJjdx2ai850xQR1azeKHiqycQ,Çatı Açık Büfe,"Konutkent Mah 2965. Cad, Konutkent, 1 Çarşısı No:6 / 7, 06810 Çankaya/Ankara, Türkiye",39.8795494,32.6644434,"[""cafe"", ""restaurant"", ""point_of_interest"", ""food"", ""establishment""]",4.0,606.0,PRICE_LEVEL_INEXPENSIVE
ChIJORZdKww50xQRLJgkzyqP1LU,Arabica Coffee House,"Bağlıca, Etimesgut Blv. No:75/38, 06790 Etimesgut/Ankara, Türkiye",39.8983018,32.6471711,"[""coffee_shop"", ""cafe"", ""point_of_interest"", ""food_store"", ""store"", ""food"", ""establishment""]",4.2,139.0,PRICE_LEVEL_MODERATE
ChIJRbf1y5w50xQRAG0u-MFU9fY,Polatlı Çorba bağlıca,"Bağlıca, Bağlıca Blv. No:31/C, 06790 Etimesgut/Ankara, Türkiye",39.8966806,32.6531715,"[""banquet_hall"", ""meal_delivery"", ""food_delivery"", ""market"", ""grocery_store"", ""cafe"", ""event_venue"", ""restaurant"", ""point_of_interest"", ""food_store"", ""store"", ""food"", ""establishment""]",4.4,716.0,PRICE_LEVEL_MODERATE
ChIJS2GkG0Y50xQR3WmXu2nEFjg,Coffee 1919 Elya Center AVM,"Konutkent, Dumlupınar Blv. No: 399/22, 06810 Çankaya/Ankara, Türkiye",39.8756538,32.6529879,"[""coffee_shop"", ""cafe"", ""point_of_interest"", ""food_store"", ""store"", ""food"", ""establishment""]",4.1,165.0,PRICE_LEVEL_MODERATE
ChIJdYIdLBE50xQRBlMLtxZqofA,Zahire Pastanesi Bağlıca,"Bağlıca, Bağlıca Blv. 24/A D:I, 06790 Etimesgut/Ankara, Türkiye",39.8962002,32.65868,"[""dessert_shop"", ""confectionery"", ""point_of_interest"", ""bakery"", ""food_store"", ""store"", ""food"", ""establishment""]",4.4,2396.0,PRICE_LEVEL_MODERATE
ChIJr00SS7g50xQRkyMhSE7Y3Hw,Hazar Ekmek Fırını,"Bağlıca, Bağlıca Blv. No:83, 06790 Etimesgut/Ankara, Türkiye",39.8975749,32.6525037,"[""bakery"", ""point_of_interest"", ""food_store"", ""store"", ""food"", ""establishment""]",4.0,1113.0,PRICE_LEVEL_MODERATE
ChIJ_VF4smM50xQRHXy5svgYNjs,Park Fırın,"Fatih Sultan, Dumlupınar Blv. No:430, 06790 Etimesgut/Ankara, Türkiye",39.8816953,32.6584594,"[""bakery"", ""point_of_interest"", ""food_store"", ""store"", ""food"", ""establishment""]",3.6,577.0,PRICE_LEVEL_MODERATE
ChIJF2NB9qY50xQRhfvIBbZqqKM,Anka Pasta & Cafe,"Bağlıca, 1180.cadde Kayra Iş Merkezi D:7/4, 06070 Etimesgut/Ankara, Türkiye",39.8994601,32.6380843,"[""dessert_shop"", ""confectionery"", ""cafe"", ""point_of_interest"", ""bakery"", ""food_store"", ""store"", ""food"", ""establishment""]",4.3,106.0,PRICE_LEVEL_MODERATE
ChIJqxZTSwA50xQReubsqhr2bOw,Misbaşak,"Bağlıca, Bağlıca Blv. 56/5, 06790 Etimesgut/Ankara, Türkiye",39.8982294,32.6457474,"[""bakery"", ""point_of_interest"", ""food_store"", ""store"", ""food"", ""establishment""]",4.4,310.0,PRICE_LEVEL_MODERATE
ChIJc-VHv2w50xQRJLOc1DqfqNc,Pastannecim,"Bağlıca, Bağlıca Blv., 06790 Etimesgut/Ankara, Türkiye",39.8965369,32.6580119,"[""dessert_shop"", ""confectionery"", ""point_of_interest"", ""bakery"", ""food_store"", ""store"", ""food"", ""establishment""]",3.9,152.0,PRICE_LEVEL_MODERATE
ChIJW7lRNAA50xQRmPY-qPi6oCo,The_OCHI,"Koru, Bangabandhu Blv. No:9, 06810 Çankaya/Ankara, Türkiye",39.8883688,32.687196799999995,"[""coffee_shop"", ""cafe"", ""pub"", ""bar"", ""american_restaurant"", ""food_store"", ""restaurant"", ""store"", ""food"", ""point_of_interest"", ""establishment""]",4.1,959.0,PRICE_LEVEL_MODERATE
ChIJobmFtwU50xQR5s7ZFhuLzZU,Serve House,"Mutlukent Mahallesi 1921.Cadde, Mutlukent, Hekimköy Sitesi No:7, 06800 Çankaya/Ankara, Türkiye",39.8932131,32.7039512,"[""cafe"", ""food"", ""point_of_interest"", ""establishment""]",4.0,507.0,PRICE_LEVEL_MODERATE
ChIJR9wLcok40xQR2g7Sbs33G08,Liva Ümitköy,"Ümit, 2494/3. Sk. No:13, 06810 Çankaya/Ankara, Türkiye",39.8932555,32.7022917,"[""dessert_restaurant"", ""ice_cream_shop"", ""bakery"", ""breakfast_restaurant"", ""chocolate_shop"", ""dessert_shop"", ""candy_store"", ""confectionery"", ""food_store"", ""restaurant"", ""store"", ""food"", ""point_of_interest"", ""establishment""]",3.7,3991.0,PRICE_LEVEL_EXPENSIVE
ChIJK-EGN7850xQRmu_26skYjUU,Coffee 1919 Ümitköy,"Ümit Mahallesi, 2496. Sokak, Ümit, Ümitköy No:1, 06810 Çankaya/Ankara, Türkiye",39.8963069,32.7018118,"[""coffee_shop"", ""cafe"", ""food_store"", ""store"", ""food"", ""point_of_interest"", ""establishment""]",4.2,370.0,PRICE_LEVEL_MODERATE
ChIJDxkAGvI40xQRHw2HMI_1s9Y,Cookshop,"Gordion Shopping Mall, Koru, Ankaralılar Cd. No:2 K:1 D:110, 06810 Çankaya/Ankara, Türkiye",39.8997787,32.6915316,"[""restaurant"", ""cafe"", ""food"", ""point_of_interest"", ""establishment""]",4.6,3164.0,PRICE_LEVEL_EXPENSIVE
ChIJR7pszKE50xQRHMc7CAc2sYk,ÜMİTKÖY GARDEN ARABİCA COFFEE HOUSE,"Ümit, 1927. Sk. no :5, 06810 Çankaya/Ankara, Türkiye",39.8919624,32.7028056,"[""coffee_shop"", ""cafe"", ""food_store"", ""store"", ""food"", ""point_of_interest"", ""establishment""]",4.5,110.0,PRICE_LEVEL_MODERATE
ChIJM0ho35I40xQRh3HttQEh6ok,Hazar Unlu Mamülleri,"Çayyolu, 06810 Yenimahalle/Ankara, Türkiye",39.8866589,32.6967962,"[""bakery"", ""dessert_shop"", ""confectionery"", ""home_goods_store"", ""wholesaler"", ""food_store"", ""store"", ""food"", ""point_of_interest"", ""establishment""]",4.1,826.0,PRICE_LEVEL_MODERATE
ChIJ-cZph1VO0xQRKbIt6YdrnvE,Filika Pasta Evi,"Koru Mh. Ihlamur Cd. Mesa Koru Sitesi No:7/A, Çayyolu, Koru, 06420 Çankaya/Ankara, Türkiye",39.8908092,32.6806436,"[""bakery"", ""dessert_shop"", ""confectionery"", ""wholesaler"", ""cafe"", ""food_store"", ""store"", ""restaurant"", ""food"", ""point_of_interest"", ""establishment""]",4.0,237.0,PRICE_LEVEL_MODERATE
ChIJQ7A6pZQ40xQR26H8NRb0f2U,Mupa Taş Fırın,"Çankaya Ankara TR, küme evleri, Çayyolu, 2432. Cd. No: 39, 06800 Yenimahalle/Ankara, Türkiye",39.8851566,32.6975211,"[""bakery"", ""food_store"", ""store"", ""food"", ""point_of_interest"", ""establishment""]",4.5,317.0,PRICE_LEVEL_MODERATE
ChIJMwzjxuQ40xQR1yWdLSCGs98,Qrabiye Boutique Patisserie,"Koru Mah. Ihlamur Caddesi Mesa Koru Ticaret merkezi, Çayyolu, no :2, 06810 Çankaya/Ankara, Türkiye",39.8905938,32.6811401,"[""cafe"", ""bakery"", ""dessert_shop"", ""confectionery"", ""food_store"", ""store"", ""food"", ""point_of_interest"", ""establishment""]",4.5,174.0,PRICE_LEVEL_MODERATE
ChIJwX-PZok40xQRlQxlFVvAkOI,Savarona Simit Fırını,"Ümit, 2494/3. Sk. No:8, 06810 Yenimahalle/Çankaya/Ankara, Türkiye",39.8931725,32.701638599999995,"[""bagel_shop"", ""bakery"", ""food_store"", ""store"", ""restaurant"", ""food"", ""point_of_interest"", ""establishment""]",4.4,243.0,PRICE_LEVEL_MODERATE
ChIJhfChxPg50xQRtIcN8jSzVo8,Üzüm cafe,"Ümit, 2480. Sk. Kafkas Sitesi No:86, 06810, 06810 Çankaya/Ankara, Türkiye",39.8974451,32.6961759,"[""coffee_shop"", ""bakery"", ""dessert_shop"", ""confectionery"", ""cafe"", ""food_store"", ""store"", ""restaurant"", ""food"", ""point_of_interest"", ""establishment""]",4.5,178.0,PRICE_LEVEL_MODERATE
ChIJw_s37pI40xQRORk7tSTpgs8,Elmer Yufka Ve Mantı,"Çayyolu, 2432. Cd. 134/D, 06810 Çankaya/Ankara, Türkiye",39.8868246,32.6973478,"[""dessert_restaurant"", ""bakery"", ""ranch"", ""farm"", ""food_store"", ""store"", ""restaurant"", ""food"", ""point_of_interest"", ""establishment""]",4.7,121.0,PRICE_LEVEL_MODERATE
ChIJRz29aVo50xQRjMyDPs8vDng,La Palette Boulangerie / Patisserie,"Koru, Söğüt Sk. No:4, 06810 Çankaya/Ankara, Türkiye",39.886037,32.682749300000005,"[""bakery"", ""food_store"", ""store"", ""food"", ""point_of_interest"", ""establishment""]",4.4,104.0,PRICE_LEVEL_MODERATE
ChIJp_vH0uw40xQRillrKy_-82Y,Zurich Patisserie,"154/A, Çayyolu, 2432. Cd., 06810 Çankaya/Ankara, Türkiye",39.8864262,32.6956025,"[""dessert_restaurant"", ""bakery"", ""dessert_shop"", ""confectionery"", ""food_store"", ""store"", ""restaurant"", ""food"", ""point_of_interest"", ""establishment""]",3.9,154.0,PRICE_LEVEL_MODERATE
ChIJventuWg50xQRd3fKoHDoJEE,Uyanık Kutuphane Cayyolu,"Gordion Konutları, Koru, Ankaralılar Cd., 06810 Çankaya/Ankara, Türkiye",39.8977103,32.6914996,"[""library"", ""cafe"", ""food"", ""point_of_interest"", ""establishment""]",3.7,231.0,PRICE_LEVEL_MODERATE
ChIJ7043-TA50xQRPaGwGRMrkUg,Sunco Ümitköy,"Mutlukent, 1949. Sk. Mutluköy Sitesi No: 17, 06800 Çankaya/Ankara, Türkiye",39.8948184,32.7052738,"[""cafe"", ""point_of_interest"", ""food"", ""establishment""]",4.1,226.0,PRICE_LEVEL_MODERATE
ChIJo8FBvqY50xQRmElmKAmDJiQ,Kruvasante Ümitköy,"Mutlukent, 1948. Sk. Mutluköy Sitesi No:8 No: 6, 06800 Çankaya/Ankara, Türkiye",39.8948881,32.7046834,"[""cafe"", ""point_of_interest"", ""food"", ""establishment""]",4.3,1050.0,PRICE_LEVEL_MODERATE
ChIJvUtoDVY50xQR-AaQqzyC1Wg,Coffee LAB Ümitköy,"Mutlukent, 1933. Sk. NO:9, 06800 Çankaya/Ankara, Türkiye",39.8940509,32.70408,"[""coffee_shop"", ""cafe"", ""point_of_interest"", ""food_store"", ""store"", ""food"", ""establishment""]",4.4,527.0,PRICE_LEVEL_MODERATE
ChIJ46OsPG030xQR6l5zPN-JIbk,Turta Home Cafe,"MutluKöy sitesi 1944. cad. 1948. Sokak No:15 Ümitköy- Ankara Galleria Arkası, Mutlukent, 06810 Çankaya/Ankara, Türkiye",39.8946087,32.7046811,"[""bakery"", ""dessert_shop"", ""confectionery"", ""food_store"", ""cafe"", ""store"", ""food"", ""point_of_interest"", ""establishment""]",4.1,1596.0,PRICE_LEVEL_MODERATE
ChIJt-VpxGI40xQRnDK4YqMP-BM,GMO Simitçii Ümitköy Şubesi,"Mutlukent, 1945. Cd. & 1947. Sk. No:4, 06800 Çankaya/Ankara, Türkiye",39.896516,32.705753,"[""bagel_shop"", ""breakfast_restaurant"", ""bakery"", ""food_store"", ""cafe"", ""store"", ""restaurant"", ""food"", ""point_of_interest"", ""establishment""]",4.1,1823.0,PRICE_LEVEL_INEXPENSIVE
ChIJ83z1_fY50xQR7SBPLxw0MnY,Funda Pastanesi Ümitköy Galleria AVM,"Mutlukent, 06800 Çankaya/Ankara, Türkiye",39.8946852,32.703723499999995,"[""bakery"", ""dessert_shop"", ""confectionery"", ""food_store"", ""store"", ""food"", ""point_of_interest"", ""establishment""]",3.9,499.0,PRICE_LEVEL_MODERATE
ChIJw6ZAgno50xQRqyAgEnzoDww,Ayder'ishi Fırın & Cafe,"Mutlukent, 1961. Cd. No:11, 06800 Çankaya/Ankara, Türkiye",39.8976815,32.7078671,"[""cafeteria"", ""bagel_shop"", ""bakery"", ""dessert_shop"", ""confectionery"", ""food_store"", ""store"", ""food"", ""point_of_interest"", ""establishment""]",4.7,187.0,PRICE_LEVEL_MODERATE
ChIJy9EwKL850xQR4CTJ8b-F5h0,Marquise,"Mutlukent, 1950. Sk. No:23, 06800 Çankaya/Ankara, Türkiye",39.895243,32.705826,"[""coffee_shop"", ""bakery"", ""dessert_shop"", ""confectionery"", ""food_store"", ""cafe"", ""store"", ""food"", ""point_of_interest"", ""establishment""]",4.3,238.0,PRICE_LEVEL_MODERATE
ChIJV2CCSIg40xQRTGNfD8h4v4w,Nil's Artisan Bakery,"Mutlukent, 1943. Cd. No:3, 06800 Çankaya/Ankara, Türkiye",39.8944339,32.704324,"[""bakery"", ""breakfast_restaurant"", ""dessert_shop"", ""confectionery"", ""food_store"", ""cafe"", ""store"", ""restaurant"", ""food"", ""point_of_interest"", ""establishment""]",4.6,286.0,PRICE_LEVEL_MODERATE
ChIJRfniomI40xQR20YG4bE4h78,Bi'Kavanoz,"Mutlukent Mah. Mutluköy Sitesi 1950. Sokak No:8 Ümitköy / Ankara, Mutlukent, 06800 Çankaya/Ankara, Türkiye",39.895642,32.705598,"[""breakfast_restaurant"", ""cafeteria"", ""bakery"", ""dessert_shop"", ""confectionery"", ""food_store"", ""store"", ""restaurant"", ""food"", ""point_of_interest"", ""establishment""]",3.7,703.0,PRICE_LEVEL_EXPENSIVE
ChIJP7w672I40xQRWFgaaYlyZ0E,Pastanec Umitkoy,"Ümitköy, Mutlukent, 2432. Cd. No:65, 06810 Çankaya/Ankara, Türkiye",39.8969285,32.7049958,"[""bakery"", ""dessert_shop"", ""confectionery"", ""food_store"", ""store"", ""food"", ""point_of_interest"", ""establishment""]",3.9,230.0,PRICE_LEVEL_MODERATE
ChIJuV_YXWQ50xQRpjVSN_YaUEY,Bülent Börekçilik Ankara Çankaya Mutlukent,"Mutlukent, Angora Blv. No:162, 06800 Çankaya/Ankara, Türkiye",39.8853427,32.7153177,"[""bakery"", ""food_store"", ""store"", ""food"", ""point_of_interest"", ""establishment""]",4.3,110.0,PRICE_LEVEL_MODERATE
ChIJJ7YeiNE50xQROtTJuQKUYmE,Eklerci murat Ümitköy,"2432. cadde, Mutlukent, Ümitköy no:49, 06800 Çankaya/Ankara, Türkiye",39.8985324,32.7060293,"[""bakery"", ""dessert_shop"", ""confectionery"", ""food_store"", ""store"", ""food"", ""point_of_interest"", ""establishment""]",4.5,128.0,PRICE_LEVEL_MODERATE
ChIJO6bKiGI40xQRFELhs9ZVhcI,Ekin Çıtır Simit,"Mutlukent, 2432. Cd. No:89, 06800 Çankaya/Ankara, Türkiye",39.8963628,32.704678699999995,"[""bagel_shop"", ""bakery"", ""food_store"", ""store"", ""restaurant"", ""food"", ""point_of_interest"", ""establishment""]",4.4,151.0,PRICE_LEVEL_INEXPENSIVE
ChIJ3-pQNKlH0xQRqM59vFdRZNg,Federal Bilkent,"Üniversiteler, Ankuva AVM No:12 D:30, 06800 Çankaya/Ankara, Türkiye",39.8834792,32.7558314,"[""coffee_shop"", ""pub"", ""cafe"", ""bar"", ""restaurant"", ""point_of_interest"", ""food_store"", ""store"", ""food"", ""establishment""]",3.9,394.0,PRICE_LEVEL_MODERATE
ChIJZdlZra5H0xQRVLPRAZMLnY8,Rollhouse Bowling ve Eğlence Merkezi,"Üniversiteler, Ankuva AVM No:1, 06530 Çankaya/Ankara, Türkiye",39.8836861,32.7560768,"[""bowling_alley"", ""cafe"", ""event_venue"", ""sports_complex"", ""sports_activity_location"", ""point_of_interest"", ""food"", ""establishment""]",3.9,888.0,PRICE_LEVEL_MODERATE
ChIJzSVa7KxH0xQRSXmmZiS0fX4,Starbucks,"Üniversiteler Mah. No: 72 Kat: Giriş 2. Bölge, Üniversiteler, Bilkent Park Sitesi Sosyal Tesis Ek Binası B Blok, 06800 Çankaya/Ankara, Türkiye",39.8833046,32.7613466,"[""coffee_shop"", ""cafe"", ""point_of_interest"", ""food_store"", ""store"", ""food"", ""establishment""]",4.2,841.0,PRICE_LEVEL_MODERATE
ChIJTXJEUalH0xQRmqyC3ehZw4M,Fameo Caffè,"Üniversiteler, 1597. Cd. No:3 D:3, 06800 Çankaya/Ankara, Türkiye",39.883196,32.7571061,"[""cafe"", ""coffee_shop"", ""point_of_interest"", ""food_store"", ""store"", ""food"", ""establishment""]",4.0,1295.0,PRICE_LEVEL_MODERATE
ChIJzb9GnKtH0xQR72Jz_k7Qzrk,Bento,"Üniversiteler, Bilkent Park Sitesi, Üniversiteler, Bilkent Blv., 06800 Çankaya/Ankara, Türkiye",39.8817787,32.759965699999995,"[""cafe"", ""point_of_interest"", ""food"", ""establishment""]",4.1,101.0,PRICE_LEVEL_MODERATE
ChIJhfmrF6xH0xQRiHO-F56IPQA,BİLKENT MADO,"Üniversiteler, 1597. Cd. No:3, 06800 Çankaya/Ankara, Türkiye",39.884059,32.758521,"[""cafe"", ""ice_cream_shop"", ""fine_dining_restaurant"", ""dessert_restaurant"", ""breakfast_restaurant"", ""coffee_shop"", ""turkish_restaurant"", ""bakery"", ""dessert_shop"", ""confectionery"", ""food_store"", ""store"", ""restaurant"", ""food"", ""point_of_interest"", ""establishment""]",3.5,503.0,PRICE_LEVEL_EXPENSIVE
ChIJeSy1u09H0xQRiRtGExNhnbI,Ayselli Simit Fırın Cafe Bistro,"Üniversiteler, 1604. Cd. No:9, 06800 Çankaya/Ankara, Türkiye",39.90318080000001,32.7545641,"[""cafe"", ""bakery"", ""food_store"", ""store"", ""restaurant"", ""food"", ""point_of_interest"", ""establishment""]",4.0,126.0,PRICE_LEVEL_MODERATE
ChIJw_1dPRBG0xQRbVeCD5fmeCM,Central Bar Ankara,"İşçi Blokları, 1536. Sk. No:7, 06520 Çankaya/Ankara, Türkiye",39.8931034,32.7959158,"[""event_venue"", ""night_club"", ""cafe"", ""bar"", ""restaurant"", ""point_of_interest"", ""food"", ""establishment""]",4.3,3525.0,PRICE_LEVEL_MODERATE
ChIJZQxd7T5G0xQR-Gv0JiEqOB8,Çatı Açık Büfe,"Endüstri Mühendisliği Yanı, Üniversiteler, ODTÜ Kampüsü, 06800 Çankaya/Ankara, Türkiye",39.892707,32.782320299999995,"[""cafeteria"", ""breakfast_restaurant"", ""cafe"", ""restaurant"", ""point_of_interest"", ""food"", ""establishment""]",4.4,4442.0,PRICE_LEVEL_INEXPENSIVE
ChIJc8RLkFpH0xQRbc4qW5wNXTE,Firuze Kahve,"Çiğdem, 1588. Cd. NO:35, 06530 Çankaya/Ankara, Türkiye",39.8898422,32.7960078,"[""breakfast_restaurant"", ""banquet_hall"", ""coffee_shop"", ""cafe"", ""event_venue"", ""restaurant"", ""point_of_interest"", ""food_store"", ""store"", ""food"", ""establishment""]",3.9,1219.0,PRICE_LEVEL_MODERATE
ChIJ1c80exZG0xQRxPTjB0XPlzg,ODTÜ Çarşı,"Üniversiteler, ODTÜ Kampüsü, 06800 Çankaya/Ankara, Türkiye",39.892589,32.788259,"[""shopping_mall"", ""cafe"", ""point_of_interest"", ""food"", ""establishment""]",4.2,3185.0,PRICE_LEVEL_MODERATE
ChIJKX9IfQ9H0xQR-cpnP9u4Gl4,Misbaşak 100. Yıl,"Çiğdem, 1589. Sk. No:3, 06530 Çankaya/Ankara, Türkiye",39.8882502,32.7978688,"[""bakery"", ""dessert_shop"", ""confectionery"", ""wholesaler"", ""restaurant"", ""point_of_interest"", ""food_store"", ""store"", ""food"", ""establishment""]",4.1,383.0,PRICE_LEVEL_MODERATE
ChIJM73CiRNG0xQR-Q7uWG9zKTI,Çatı Açık Büfe,"Üniversiteler Mah. ODTÜ Kampüs Yurtlar Bölgesi Kız Konukevi, Üniversiteler, 06800 Çankaya/Ankara, Türkiye",39.889506,32.7915297,"[""cafeteria"", ""buffet_restaurant"", ""cafe"", ""restaurant"", ""point_of_interest"", ""food"", ""establishment""]",4.3,629.0,PRICE_LEVEL_MODERATE
ChIJw8_LoEdH0xQR7QdPEuHSGgQ,8.40 Coffee & Eatery,"Çiğdem, 1588. Cd. no 15, 06510 Çankaya/Ankara, Türkiye",39.889113,32.796842000000005,"[""cafe"", ""dessert_restaurant"", ""hamburger_restaurant"", ""pizza_restaurant"", ""coffee_shop"", ""american_restaurant"", ""restaurant"", ""point_of_interest"", ""food_store"", ""store"", ""food"", ""establishment""]",4.5,357.0,PRICE_LEVEL_MODERATE
ChIJL541wqJJ0xQRpsS5fm4WXWI,Hoya Coffee & Kitchen,"Çiğdem Mah. Ortadoğu Konutları 1588.sok. No:33 ODTÜ A4 Giriş Kapısı, Çiğdem, 06530 Çankaya/Ankara, Türkiye",39.8898004,32.7961681,"[""cafe"", ""point_of_interest"", ""food"", ""establishment""]",4.4,290.0,PRICE_LEVEL_MODERATE
ChIJE-z-bhRG0xQR_19hVO5cHYg,Sun Shine Cafe,"Üniversiteler, 06800 Çankaya/Ankara, Türkiye",39.889845,32.7906187,"[""cafe"", ""point_of_interest"", ""food"", ""establishment""]",4.0,882.0,PRICE_LEVEL_MODERATE
ChIJV8QRgRZG0xQRfmh0NC_t2DM,ODTÜDEN,"Üniversiteler, 06800 Çankaya/Ankara, Türkiye",39.8919713,32.7885069,"[""book_store"", ""coffee_shop"", ""cafe"", ""point_of_interest"", ""food_store"", ""store"", ""food"", ""establishment""]",4.5,710.0,PRICE_LEVEL_MODERATE
ChIJiy2gexZG0xQRgWdKoa348iA,Susam Simit,"Üniversiteler, 06800 Çankaya/Ankara, Türkiye",39.892462,32.7882571,"[""bagel_shop"", ""bakery"", ""food_store"", ""store"", ""restaurant"", ""food"", ""point_of_interest"", ""establishment""]",3.9,368.0,PRICE_LEVEL_MODERATE
ChIJdTV4kug70xQRZSnylb_Qdq0,Tarihi Aynalı Fırın Sincan,"Tandoğan Mahallesi, Ahi Mesut Buvarı, No: 320 A-B, Tandoğan, Ata Cd. No:72, 06930 Sincan/Ankara, Türkiye",39.9596061,32.5677108,"[""dessert_shop"", ""confectionery"", ""point_of_interest"", ""bakery"", ""food_store"", ""store"", ""food"", ""establishment""]",3.8,1756.0,PRICE_LEVEL_MODERATE
ChIJ4dBVUoA60xQR2FTtxupx-oU,The Corner Hotel,"Ahi Evran, Bahçe Sk. no.40, 6930 Sincan/Ankara, Türkiye",39.9698839,32.5797594,"[""lodging"", ""cafe"", ""hotel"", ""restaurant"", ""point_of_interest"", ""food"", ""establishment""]",4.0,1069.0,PRICE_LEVEL_MODERATE
ChIJx43pAzsx0xQRnLrq2F8YviQ,Tarihi Fırın - Ayaş Yolu,"Akşemsettin, Ayaş Ankara Yolu Blv. No:233, 06934 Sincan Osb/Sincan/Ankara, Türkiye",39.97592360000001,32.5874449,"[""restaurant"", ""cafe"", ""point_of_interest"", ""bakery"", ""food_store"", ""store"", ""food"", ""establishment""]",4.3,579.0,PRICE_LEVEL_MODERATE
ChIJWXaHo8Y30xQRmdhH-EFw9UI,Cumhuriyet Lezzet Dünyası,"Batı Sitesi, Batı Blv 131-133, 06370 Yenimahalle / Batıkent/Yenimahalle/Ankara, Türkiye",39.9574892,32.7006314,"[""restaurant"", ""fast_food_restaurant"", ""breakfast_restaurant"", ""coffee_shop"", ""deli"", ""dessert_shop"", ""bakery"", ""meal_takeaway"", ""confectionery"", ""cafe"", ""food_store"", ""store"", ""food"", ""point_of_interest"", ""establishment""]",3.8,5475.0,PRICE_LEVEL_EXPENSIVE
ChIJ9XyG99I20xQRDCt7qSz_vck,Mutlu Günler Fırını,"Şehit Osman Avcı, Şht. Mehmet Çavuş Sk. No:13, 06820 Etimesgut/Ankara, Türkiye",39.9717004,32.6534053,"[""restaurant"", ""dessert_restaurant"", ""dessert_shop"", ""bakery"", ""confectionery"", ""food_store"", ""store"", ""food"", ""point_of_interest"", ""establishment""]",4.1,5657.0,PRICE_LEVEL_MODERATE
ChIJ2_R95cJJ0xQRtDXdMnPAYqc,Starbucks,"İnönü, Fatih Sultan Mehmet Blv No: 412, 06370 Yenimahalle/Ankara, Türkiye",39.9458819,32.7163728,"[""coffee_shop"", ""cafe"", ""food_store"", ""store"", ""food"", ""point_of_interest"", ""establishment""]",3.8,555.0,PRICE_LEVEL_MODERATE
ChIJkx7I40RS0xQRyE3Al-xXB10,Uluçınar Ekmek ve Unlu Mamülleri,"Bostancık Mahallesi no 138, Bostancık, 1576. Sk. No:2, 06320 Mamak/Ankara, Türkiye",39.960591,32.929353299999995,"[""bakery"", ""food_store"", ""store"", ""food"", ""point_of_interest"", ""establishment""]",3.9,1437.0,PRICE_LEVEL_MODERATE
ChIJz-T--WlT0xQRqM7L_xR5QxM,Elfida Kahvecim Cafe,"Karapürçek, 397. Cd. No:25, 06360 Altındağ/Ankara, Türkiye",39.9754859,32.9722006,"[""coffee_shop"", ""pizza_restaurant"", ""bakery"", ""dessert_shop"", ""confectionery"", ""cafe"", ""food_store"", ""store"", ""restaurant"", ""food"", ""point_of_interest"", ""establishment""]",4.3,1840.0,PRICE_LEVEL_MODERATE
ChIJlz9frRBU0xQRVKlwMdeHw0c,25 Saat Unlu Mamüller,"Ortaköy, No:359, 06635 Mamak/Ankara, Türkiye",39.9456994,33.0391598,"[""bakery"", ""food_store"", ""store"", ""food"", ""point_of_interest"", ""establishment""]",4.1,1967.0,PRICE_LEVEL_MODERATE
ChIJtZFhdJP_gUARpgDh_jTrIek,Lalahan Unlu Mamüller,"Lalahan, 06850 Mamak/Ankara, Türkiye",39.9694211,33.1135738,"[""bakery"", ""food_store"", ""store"", ""point_of_interest"", ""food"", ""establishment""]",4.4,718.0,PRICE_LEVEL_MODERATE
ChIJtYsAnbb9gUARgxtfJTs7A9w,Keyf'İnce Cafe,"İsmetpaşa, Bülbül Sk. No:7 D:B, 06780 Elmadağ/Ankara, Türkiye",39.9186859,33.233474699999995,"[""cafe"", ""food"", ""point_of_interest"", ""establishment""]",4.8,257.0,PRICE_LEVEL_MODERATE
ChIJ1457-3n9gUAREPZVCii0SvM,Lale Pastanesi,"Kemalpaşa, Cumhuriyet Cd., 06780 Elmadağ/Ankara, Türkiye",39.9214687,33.2271558,"[""bakery"", ""dessert_shop"", ""confectionery"", ""food_store"", ""store"", ""food"", ""point_of_interest"", ""establishment""]",4.2,145.0,PRICE_LEVEL_INEXPENSIVE
ChIJwwaqmlrZ0hQRe-4YA6zcRJU,Erler Konağı Ayaş Ankara,"Hacımemi, Karadere Sk. No:123, 06710 Ayaş/Ankara, Türkiye",40.0269966,32.3536053,"[""restaurant"", ""breakfast_restaurant"", ""tea_house"", ""point_of_interest"", ""food"", ""establishment""]",4.4,414.0,PRICE_LEVEL_MODERATE
ChIJP10x2MQl0xQRGzoqGH7gTDY,Yeni Fırın,"Fevzi Çakmak, Orhangazi Cd. 114/a, 06946 Sincan/Ankara, Türkiye",40.0119098,32.5152672,"[""dessert_shop"", ""bakery"", ""confectionery"", ""food_store"", ""store"", ""food"", ""point_of_interest"", ""establishment""]",3.7,409.0,PRICE_LEVEL_MODERATE
ChIJdQj2BqMv0xQR7hfxZi8dkBg,"Hasanbey Fırın, Cafe, bistro","Çoğlu, 831. Cadde No:11, 06942 Sincan/Ankara, Türkiye",40.0071904,32.5370968,"[""bakery"", ""food_store"", ""store"", ""food"", ""point_of_interest"", ""establishment""]",4.4,1262.0,PRICE_LEVEL_MODERATE
ChIJQ70RMNcx0xQRjjNAgtQLCHs,BahçeMis Kır Bahçesi,"Çoğlu Mahallesi. necip fazıl Cad. No:38, Akıncılar, Hava Alanı Yolu 2 km, 06946 Sincan/Ankara, Türkiye",40.0278668,32.5419393,"[""breakfast_restaurant"", ""wedding_venue"", ""turkish_restaurant"", ""performing_arts_theater"", ""dessert_shop"", ""bakery"", ""event_venue"", ""confectionery"", ""food_store"", ""store"", ""restaurant"", ""food"", ""point_of_interest"", ""establishment""]",4.3,680.0,PRICE_LEVEL_MODERATE
ChIJAeuYooQv0xQRzIhX1uYUAvY,Motto Coffee House,"natura yenikent, 29 Ekim, Melih Gökçek Blv., 06946 Sincan Osb/Sincan/Ankara, Türkiye",40.0170195,32.5341492,"[""coffee_shop"", ""cafe"", ""food_store"", ""store"", ""food"", ""point_of_interest"", ""establishment""]",4.2,226.0,PRICE_LEVEL_MODERATE
ChIJGd4wb7sv0xQResz94_5gzCA,Barışzade Pastanesi,"Fevzi Çakmak, Cumhuriyet Blv. No:101, 06946 Sincan Osb/Sincan/Ankara, Türkiye",40.013604,32.518904899999995,"[""dessert_shop"", ""bakery"", ""confectionery"", ""food_store"", ""store"", ""food"", ""point_of_interest"", ""establishment""]",4.6,248.0,PRICE_LEVEL_MODERATE
ChIJuT7d1N4v0xQRl1JVVFVxPSE,Linaria Pasta-Cafe-Bistro Şube,"29 Ekim, 06946 Sincan/Ankara, Türkiye",40.008971,32.534229,"[""dessert_restaurant"", ""bakery"", ""meal_takeaway"", ""food_store"", ""store"", ""restaurant"", ""food"", ""point_of_interest"", ""establishment""]",3.7,615.0,PRICE_LEVEL_EXPENSIVE
ChIJT3gszDox0xQRDElGKaQokuA,Tarihi Aynalı Fırın Törekent Şube,"Gökçek Mah. 249.Sk. B Blok 47/M, Metro Son Durağı, Törekent, Karşısı, 06949 Sincan/Ankara, Türkiye",39.9872632,32.5591856,"[""bakery"", ""food_store"", ""store"", ""food"", ""point_of_interest"", ""establishment""]",3.7,897.0,PRICE_LEVEL_MODERATE
ChIJP-3b2KA30xQRLv6GJbk43IU,Harper's Coffee & Roastery,"Turgut Özal, 2178. Sk No:1 D:A, 06370 Yenimahalle/Ankara, Türkiye",39.9905975,32.7017665,"[""cafe"", ""food"", ""point_of_interest"", ""establishment""]",4.1,1250.0,PRICE_LEVEL_MODERATE
ChIJ4_JLV0820xQRVIuZE6is4VQ,Çakırlar mado,"Yeni Batı, 06370 Yenimahalle/Ankara, Türkiye",39.982902,32.6892865,"[""cafe"", ""food"", ""point_of_interest"", ""establishment""]",3.5,1836.0,PRICE_LEVEL_EXPENSIVE
ChIJAd5Sgys30xQRtmRRz4oq0Xk,ARABİCA ASTİM COFFEE HOUSE,"Yeni Batı, Veysel Karani Blv. No:1 E3/4, 06370 Yenimahalle/Ankara, Türkiye",39.9877179,32.6909025,"[""coffee_shop"", ""cafe"", ""food_store"", ""store"", ""food"", ""point_of_interest"", ""establishment""]",4.2,735.0,PRICE_LEVEL_MODERATE
ChIJYzkTz0M30xQRD7tonc75D7o,GöksUN Fırın Pastane,"Susuz, Akıncılar Cd. No:22C D:A, 06105 Yenimahalle/Ankara, Türkiye",40.0063633,32.6490707,"[""bakery"", ""food_store"", ""store"", ""food"", ""point_of_interest"", ""establishment""]",4.5,491.0,PRICE_LEVEL_MODERATE
ChIJ9____65O0xQR-ZEMMLbaLF8,Egypt Hookah Cafe,"Turgut Özal Mahallesi Şehit Kaymakam Muhammed Fatih Safitürk Bulvarı :45/2 Batıkent 06370, Turgut Özal, 06170 Yenimahalle/Ankara, Türkiye",39.9947668,32.6980467,"[""cafe"", ""food"", ""point_of_interest"", ""establishment""]",4.1,672.0,PRICE_LEVEL_MODERATE
ChIJw2yXoUs30xQRqDhhA9cfmLY,ZuuZuu Lounge,"Yeni Batı, 2421. Sk. No: 1, 06370 Yenimahalle/Ankara, Türkiye",39.9839121,32.6901192,"[""cafe"", ""food"", ""point_of_interest"", ""establishment""]",4.1,115.0,PRICE_LEVEL_MODERATE
ChIJE0gpJmJL0xQR9qgWTCgy7Mk,Koçak fırın KOKOREÇ,"İvedikköy, Anadolu Blv No:193 D:4, 06000 Yenimahalle/Ankara, Türkiye",40.01095170000001,32.7749047,"[""restaurant"", ""bakery"", ""food_store"", ""store"", ""food"", ""point_of_interest"", ""establishment""]",4.3,2158.0,PRICE_LEVEL_MODERATE
ChIJyVyGenZM0xQROlIk1FooAvA,ÇAMALTI PASTANESİ - ANKARA,"Şehit Kubilay, Özlem Cd. No:2 D:A, 06020 Keçiören/Ankara, Türkiye",39.9957045,32.8106066,"[""breakfast_restaurant"", ""tea_house"", ""pizza_restaurant"", ""dessert_shop"", ""bakery"", ""confectionery"", ""cafe"", ""home_goods_store"", ""food_store"", ""store"", ""restaurant"", ""food"", ""point_of_interest"", ""establishment""]",4.0,1356.0,PRICE_LEVEL_MODERATE
ChIJFypm2LBO0xQRLlJUpLYVGYU,Misbaşak İvedik Şubesi,"İvedik OSB, Melih Gökçek Blv. No:18 D:7, 06170 Yenimahalle/Ankara, Türkiye",39.9912629,32.7466115,"[""bakery"", ""food_store"", ""store"", ""food"", ""point_of_interest"", ""establishment""]",4.1,2417.0,PRICE_LEVEL_MODERATE
ChIJ7xYk0VVL0xQRqJUiqVwoj-s,Çatı Açık Büfe,"Serhat, Melih Gökçek Blv. No:129/C, 06378 Yenimahalle/Ankara, Türkiye",40.000558,32.764655999999995,"[""restaurant"", ""cafe"", ""food"", ""point_of_interest"", ""establishment""]",4.6,375.0,PRICE_LEVEL_MODERATE
ChIJ3VeNa1APgkAR8wJIiDuDeWY,CAFENOMİ,"Saray Cumhuriyet, Özal Bulvarı No:173/A, 06146 Akyurt/Ankara, Türkiye",40.078612,32.965022399999995,"[""cafe"", ""breakfast_restaurant"", ""restaurant"", ""food"", ""point_of_interest"", ""establishment""]",4.2,709.0,PRICE_LEVEL_MODERATE
ChIJx608FLgagkARToTO7YYmd3k,Asya Ekmek Fabrikasi,"Timurhan, Çankırı Blv No:200, 06750 Akyurt/Ankara, Türkiye",40.121659,33.0661529,"[""bakery"", ""food_store"", ""store"", ""food"", ""point_of_interest"", ""establishment""]",4.4,505.0,PRICE_LEVEL_INEXPENSIVE
ChIJ-8OWYjUFgkARox0vDpPDI9Q,Somuncu Baba Fırın,"Timurhan, 06750 Akyurt/Ankara, Türkiye",40.1129021,33.0562167,"[""bakery"", ""food_store"", ""store"", ""food"", ""point_of_interest"", ""establishment""]",4.1,134.0,PRICE_LEVEL_MODERATE
ChIJF2BE4xBxgkARNemfAER0U1s,Kazan Odun Ekmek Evi,"Yıldırımbeyazıt, Ankara Bolu Yolu No:844, 06980 Kahramankazan/Ankara, Türkiye",40.1833112,32.6872255,"[""bakery"", ""point_of_interest"", ""food_store"", ""store"", ""food"", ""establishment""]",4.3,184.0,PRICE_LEVEL_MODERATE
ChIJY-fILVFwgkARVdpufvUhHfE,PASTANNECİM,"Atatürk, Fevzi Çakmak Cd. No:9/b, 06980 Kahramankazan/Ankara, Türkiye",40.2022565,32.6808026,"[""cafe"", ""point_of_interest"", ""food"", ""establishment""]",4.0,199.0,PRICE_LEVEL_MODERATE
ChIJE4lSiD8XgkAReSHuUXkJiJg,Vuslat Bahçe,"Fatih Mah. Vefa Sokak N: 84, Fatih, 06760 Çubuk/Ankara, Türkiye",40.2036621,33.0304339,"[""breakfast_restaurant"", ""brunch_restaurant"", ""wedding_venue"", ""cafe"", ""event_venue"", ""restaurant"", ""point_of_interest"", ""food"", ""establishment""]",4.6,217.0,PRICE_LEVEL_MODERATE
ChIJ6fBL1StP0xQRSnmpRRyOjyY,Hacıbey Pastanesi,"Mareşal Favzi, Hisar, çakmak caddesi 7/b, 06246 Keçiören/Ankara, Türkiye",40.0496614,32.8416657,"[""dessert_restaurant"", ""cafeteria"", ""dessert_shop"", ""bakery"", ""confectionery"", ""food_store"", ""store"", ""restaurant"", ""food"", ""point_of_interest"", ""establishment""]",3.9,146.0,PRICE_LEVEL_MODERATE
ChIJ0QBFkO0agkARwQjFT8Nsr2E,Asya Fırın Cafe,"Beyazıt, 9 Mayıs 90 Cd. 20/A, 06750 Akyurt/Ankara, Türkiye",40.1324971,33.086512899999995,"[""cafe"", ""point_of_interest"", ""food"", ""establishment""]",4.0,188.0,PRICE_LEVEL_MODERATE
ChIJRTkiAwPFgkARWMvvI47nfcw,Kahve Dünyası Algötür - Bolu Gerede,"Ankara, Cankurtaran Mevkii, Anadolu Otoyolu 94. km, 14900 Havullu/Gerede/Bolu, Türkiye",40.6093849,32.253340400000006,"[""coffee_shop"", ""cafe"", ""food_store"", ""store"", ""point_of_interest"", ""food"", ""establishment""]",4.2,558.0,PRICE_LEVEL_MODERATE
ChIJdcJj1ZtF0xQRAiOeKDi5Z8A,Timboo Cafe Kuzu Effect,"Kuzu Effect Shopping Center, Oran, Zülfü Tiğrel Cd. No: 1/5-133, 06450 Çankaya/Ankara, Türkiye",39.8452888,32.8276448,"[""restaurant"", ""cafe"", ""point_of_interest"", ""food"", ""establishment""]",3.8,220.0,PRICE_LEVEL_EXPENSIVE
ChIJUQkGIjlP0xQR_QWUnQZPmxA,LOCUS COFFEE ROASTERY,"Beytepe, Plevne Caddesi No:10/A, 06800 Çankaya/Ankara, Türkiye",39.8500555,32.7058848,"[""coffee_shop"", ""cafe"", ""wholesaler"", ""food_store"", ""store"", ""point_of_interest"", ""food"", ""establishment""]",4.6,102.0,PRICE_LEVEL_MODERATE
ChIJ739fzKxF0xQRW3wuwXVTD8c,Baklavacı Hacıbaba,"Yukarı Dikmen, Turan Güneş Blv. No:134, 06450 Çankaya/Ankara, Türkiye",39.850922,32.84637,"[""cafe"", ""point_of_interest"", ""food"", ""establishment""]",3.6,158.0,PRICE_LEVEL_MODERATE
ChIJibpYgaxF0xQRdSAejieVmWo,Jest Oran,"Yukarı Dikmen, 638. Cd. No:1, 06450 Çankaya/Ankara, Türkiye",39.852099,32.847342999999995,"[""restaurant"", ""cafe"", ""point_of_interest"", ""food"", ""establishment""]",3.5,371.0,PRICE_LEVEL_EXPENSIVE
ChIJn2l-qFA50xQRnnqsgqH78lA,Starbucks Coffee,"Starbucks, Mira Ofis, Beytepe, Kanuni Sultan Süleyman Blv No:14, 06800 Çankaya/Ankara, Türkiye",39.8628469,32.7114538,"[""coffee_shop"", ""cafe"", ""food_store"", ""store"", ""food"", ""point_of_interest"", ""establishment""]",4.0,367.0,PRICE_LEVEL_MODERATE
ChIJj8LIbzM50xQRoIkW1ZufE4I,Cadı'nın Evi Beytepe 1923,"Beytepe, 5388 sk No:1 C iç kapı No :25, 06800 Çankaya/Ankara, Türkiye",39.8607244,32.7122189,"[""chocolate_shop"", ""candy_store"", ""coffee_shop"", ""dessert_restaurant"", ""dessert_shop"", ""confectionery"", ""cafe"", ""food_store"", ""store"", ""restaurant"", ""food"", ""point_of_interest"", ""establishment""]",4.5,529.0,PRICE_LEVEL_MODERATE
ChIJ0zG-u3NF0xQRSz9Sc6zky-o,Mio Coffee,"Beytepe Mahallesi Kanuni Sultan Süleyman Bulvarı 5387, Beytepe, Cadde No:15, 06800 Çankaya/Ankara, Türkiye",39.862634,32.7116775,"[""cafe"", ""food"", ""point_of_interest"", ""establishment""]",4.4,177.0,PRICE_LEVEL_MODERATE
ChIJu8CPci850xQRjg1iwRrEFsg,Harper's Coffee Beytepe,"Beytepe, Kanuni Sultan Süleyman Blv No :61 Sitesi, No:1C, 06800 Çankaya/Ankara, Türkiye",39.8609695,32.7118086,"[""cafe"", ""food"", ""point_of_interest"", ""establishment""]",4.4,245.0,PRICE_LEVEL_MODERATE
ChIJV5tvTUFH0xQRuAFVcff2ofs,Coffee Break,"Teknokent 1596. Cad. Safir A Blok No: 2/01-D, Üniversiteler, 06690 Çankaya/Ankara, Türkiye",39.8626671,32.7358299,"[""cafe"", ""food"", ""point_of_interest"", ""establishment""]",4.1,131.0,PRICE_LEVEL_MODERATE
ChIJPedHU0hF0xQRLmJ18xD4LAQ,Arabica Coffee House Yıldız Kule,"TURANGÜNEŞ BULVARI 664. SK. NO: 106/ F Yıldız Kule, Oran, 06450 Çankaya/Ankara, Türkiye",39.8630504,32.8542144,"[""coffee_shop"", ""cafe"", ""food_store"", ""store"", ""food"", ""point_of_interest"", ""establishment""]",4.2,246.0,PRICE_LEVEL_MODERATE
ChIJb3DSHKA40xQRjABe2ScTPCk,GMO Simitcii Angora Sb,"Mutlukent mah. Gezginler cad. no:2/B, Mutlukent, 06800 Çankaya/Ankara, Türkiye",39.8728164,32.71739,"[""cafe"", ""point_of_interest"", ""food"", ""establishment""]",3.7,280.0,PRICE_LEVEL_MODERATE
ChIJO2C2DHRF0xQRk17mAXeBFvw,Libertà Di Caffè,"Hilal, 700. Sk. No:2, 06550 Çankaya/Ankara, Türkiye",39.8685402,32.8586916,"[""coffee_shop"", ""cafe"", ""point_of_interest"", ""food_store"", ""store"", ""food"", ""establishment""]",4.7,321.0,PRICE_LEVEL_MODERATE
ChIJ08KeYVlF0xQRy9cqbowVztA,Jolt Coffee Yıldızevler,"Yıldızevler, 673. Sk. No: 2/F, 06550 Çankaya/Ankara, Türkiye",39.870997,32.860239,"[""cafe"", ""point_of_interest"", ""food"", ""establishment""]",4.5,112.0,PRICE_LEVEL_MODERATE
ChIJOapedwBF0xQR9VD8GWRF7i0,Colambia Coffee Birlik,"Birlik, 451. Cd No:13 C/A, 06610 Çankaya/Ankara, Türkiye",39.8741484,32.8763585,"[""coffee_shop"", ""cafe"", ""point_of_interest"", ""food_store"", ""store"", ""food"", ""establishment""]",4.8,214.0,PRICE_LEVEL_MODERATE
ChIJJQETtRM50xQR_Yr9AIfTw2E,Kahve Dünyası - Çayyolu,"Seyfi, Çayyolu, S. Saltoğlu Blv. No:22/1, 06810 Çankaya/Ankara, Türkiye",39.8757716,32.7004024,"[""coffee_shop"", ""cafe"", ""food_store"", ""store"", ""food"", ""point_of_interest"", ""establishment""]",3.5,134.0,PRICE_LEVEL_MODERATE
ChIJqS_CJ5g40xQRU6vawy7hZYo,Chrono Station Aile Yaşam Merkezi,"Çayyolu, Angora Blv. no:209 / 29, 06810 Çankaya/Ankara, Türkiye",39.8775577,32.7061528,"[""event_venue"", ""cafe"", ""food"", ""point_of_interest"", ""establishment""]",3.4,181.0,PRICE_LEVEL_MODERATE
ChIJU-NM-2g50xQRRBzn7cOx5t4,OT Cafe Beysukent,"Çayyolu, S. Saltoğlu Blv. No: 209 İç Kapı No:13, 06810 Çankaya/Ankara, Türkiye",39.8775267,32.7054307,"[""cafe"", ""point_of_interest"", ""food"", ""establishment""]",4.6,196.0,PRICE_LEVEL_MODERATE
ChIJyQixCaE50xQRacFHf97twKU,LEMONDE,"Çayyolu, S. Saltoğlu Blv. Beysupark AVM, 06810 Çankaya/Ankara, Türkiye",39.877513,32.706316,"[""cafe"", ""point_of_interest"", ""food"", ""establishment""]",3.8,115.0,PRICE_LEVEL_MODERATE
ChIJn4u8yUNH0xQRCMzkUIR4hGw,Cafe In,"Üniversiteler, 1609. Sk. No:13, 06640 Çankaya/Ankara, Türkiye",39.8699733,32.7505848,"[""cafe"", ""food"", ""point_of_interest"", ""establishment""]",3.5,197.0,PRICE_LEVEL_MODERATE
ChIJ3Uyp0OZF0xQR8vAPMq2-6rc,Olive Tree Bakery,"Cevizlidere, Ceyhun Atuf Kansu Cd. No:168 D:A, 06520 Çankaya/Ankara, Türkiye",39.8813332,32.814834,"[""bakery"", ""food_store"", ""store"", ""point_of_interest"", ""food"", ""establishment""]",3.7,889.0,PRICE_LEVEL_MODERATE
ChIJ_Q6x4WdF0xQR7cfLvo9Uoxs,Starbucks,"Yıldırım Tower, Cevizlidere, Mevlana Blv. No:221, 06520 Çankaya/Ankara, Türkiye",39.8820347,32.8127691,"[""coffee_shop"", ""cafe"", ""food_store"", ""store"", ""point_of_interest"", ""food"", ""establishment""]",4.2,507.0,PRICE_LEVEL_MODERATE
ChIJueh23ZJF0xQRxgGHMSIaQ9Q,Oze Kahve,"Şehit Cevdet Özdemir, Şeftali Cd. No:49 D:C, 06460 Çankaya/Ankara, Türkiye",39.881007,32.832772,"[""cafe"", ""wholesaler"", ""food_store"", ""store"", ""food"", ""point_of_interest"", ""establishment""]",4.7,349.0,PRICE_LEVEL_MODERATE
ChIJ5z_rL-lF0xQRkayThOymAdE,Mora Pastanesi,"Huzur, 1134. Cadde No:27, 06460 Çankaya/Ankara, Türkiye",39.880499,32.823169199999995,"[""dessert_shop"", ""bakery"", ""confectionery"", ""food_store"", ""store"", ""restaurant"", ""food"", ""point_of_interest"", ""establishment""]",4.3,167.0,PRICE_LEVEL_MODERATE
ChIJq-Hyy-5F0xQRqMWNSC0eOE0,Mis Burçak,"Ata, Lizbon Cd., 06460 Çankaya/Ankara, Türkiye",39.8809655,32.8236839,"[""bakery"", ""food_store"", ""store"", ""food"", ""point_of_interest"", ""establishment""]",4.0,168.0,PRICE_LEVEL_MODERATE
ChIJgdVs6I1F0xQRZWshexYsuyg,Hüdaverdi,"Öveçler, Sokullu Mehmet Paşa Cd. No:112, 06460 Çankaya/Ankara, Türkiye",39.8826083,32.8358954,"[""cafe"", ""food"", ""point_of_interest"", ""establishment""]",3.9,1090.0,PRICE_LEVEL_MODERATE
ChIJm9XN3ZNF0xQR-WKi9iPshbE,CeSuR E-Spor,"Aydınlar, Sokullu Mehmet Paşa Cd. No: 121/a, 06460 Çankaya/Ankara, Türkiye",39.8806463,32.8351682,"[""amusement_center"", ""video_arcade"", ""playground"", ""cafe"", ""electronics_store"", ""store"", ""food"", ""point_of_interest"", ""establishment""]",4.2,363.0,PRICE_LEVEL_MODERATE
ChIJe4VSH49F0xQRNKATc4pViog,Misbaşak - Dikmen Cadde,"İlkadım, Dikmen Cd 217/B, 06450 Çankaya/Ankara, Türkiye",39.883703,32.8398195,"[""bakery"", ""bagel_shop"", ""breakfast_restaurant"", ""dessert_restaurant"", ""donut_shop"", ""dessert_shop"", ""confectionery"", ""cafe"", ""food_store"", ""store"", ""restaurant"", ""food"", ""point_of_interest"", ""establishment""]",4.4,798.0,PRICE_LEVEL_MODERATE
ChIJoZbdfOtF0xQRwgvJbbfUsck,Focus Study Zone & Cafe,"Yıldızevler, Şht. Mustafa Doğan Cd No:27/A, 06550 Çankaya/Ankara, Türkiye",39.8752404,32.857486699999995,"[""library"", ""coffee_shop"", ""cafe"", ""food_store"", ""store"", ""food"", ""point_of_interest"", ""establishment""]",4.6,248.0,PRICE_LEVEL_MODERATE
ChIJccPDsPFF0xQRibFmvVgmBHI,Misbaşak - Sinan Caddesi,"İlkadım, Sinan Cd. No:23, 06450 Çankaya/Ankara, Türkiye",39.8793548,32.8422975,"[""cafe"", ""food"", ""point_of_interest"", ""establishment""]",4.6,767.0,PRICE_LEVEL_MODERATE
ChIJrd7ipIlF0xQR2KpEk1zfrVs,Dream City Simit & Cafe Bistro,"İlkadım, Sinan Cd. No:59/A, 06450 Çankaya/Ankara, Türkiye",39.8768389,32.844404,"[""bagel_shop"", ""bakery"", ""food_store"", ""store"", ""restaurant"", ""food"", ""point_of_interest"", ""establishment""]",4.2,151.0,PRICE_LEVEL_MODERATE
ChIJ0YbSJGpF0xQRDcpdTMTPBRg,JAFRA,"Yıldızevler, Rabindranath Tagore Caddesi, Yıldızevler, 727. Sk. No:1 D:A, 06550 Çankaya/Ankara, Türkiye",39.879065,32.860804,"[""restaurant"", ""coffee_shop"", ""cafe"", ""food_store"", ""store"", ""food"", ""point_of_interest"", ""establishment""]",4.4,416.0,PRICE_LEVEL_MODERATE
ChIJ7-OpJFFF0xQR9UQVCp2g58k,Piaf Cafe & Restaurant,"Kumru Avm, Yildizevler Mahallesi, Rabin Dranat, Rabindranath Tagore Cd. no :7, 06650 Çankaya/Ankara, Türkiye",39.8763418,32.8617049,"[""restaurant"", ""cafe"", ""food"", ""point_of_interest"", ""establishment""]",4.5,582.0,PRICE_LEVEL_MODERATE
ChIJNQEwsvVP0xQRd5JrBHVDg8Q,SUSAM SOKAĞI SİMİT CAFE,"Birlik, 448. Cd. No:34 D:36, 06610 Çankaya/Ankara, Türkiye",39.8789911,32.8796746,"[""cafe"", ""point_of_interest"", ""food"", ""establishment""]",4.2,191.0,PRICE_LEVEL_INEXPENSIVE
ChIJwcyRq4g50xQRzwmJQ40KNhg,Arabica Coffee House Genel Müdürlüğü / Arabica Coffee House Beysukent,"Mutlukent Mutlukent mah. Pınar Cad. No: 9 Beysukent, Mutlukent, 06800 Çankaya/Ankara, Türkiye",39.8847816,32.7107089,"[""cafe"", ""food"", ""point_of_interest"", ""establishment""]",4.7,124.0,PRICE_LEVEL_MODERATE
ChIJqy3JU4I40xQR-c3h6sGl9SQ,Kurabiyem Simit Cafe,"Mutlukent, Angora Blv. No:140, 06800 Çankaya/Ankara, Türkiye",39.8860478,32.7161835,"[""cafe"", ""food"", ""point_of_interest"", ""establishment""]",4.2,592.0,PRICE_LEVEL_MODERATE
ChIJE9JFr65H0xQRbcGQSP3cFpc,Starbucks,"K:Giriş Bilkent Center, Üniversiteler, 06800 Çankaya/Ankara, Türkiye",39.883535,32.7574466,"[""coffee_shop"", ""cafe"", ""food_store"", ""store"", ""food"", ""point_of_interest"", ""establishment""]",4.2,660.0,PRICE_LEVEL_MODERATE
ChIJcY_UUQFH0xQRa0F4jiRkzj8,ivoor coffee&tea,"Çiğdem, 1588. Cd. No:7, 06530 Çankaya/Ankara, Türkiye",39.8888391,32.7971882,"[""coffee_shop"", ""cafe"", ""food_store"", ""store"", ""food"", ""point_of_interest"", ""establishment""]",4.7,300.0,PRICE_LEVEL_MODERATE
ChIJYff2WmhF0xQRT7mRcOoNhE0,Yuba Cafe & Bistro,"Ehlibeyt, Ceyhun Atuf Kansu Cd. No:114/G D:12, 06520 Çankaya/Ankara, Türkiye",39.892522,32.81655,"[""cafe"", ""dessert_shop"", ""confectionery"", ""restaurant"", ""point_of_interest"", ""bakery"", ""food_store"", ""store"", ""food"", ""establishment""]",4.1,1220.0,PRICE_LEVEL_MODERATE
ChIJg3hXlOVF0xQR63m5CHO_hzo,Öz Günaydın Fırını - Balgat,"Huzur, 1218. Cd. 1/A B/C, 06460 Çankaya/Ankara, Türkiye",39.8836611,32.8188567,"[""bakery"", ""point_of_interest"", ""food_store"", ""store"", ""food"", ""establishment""]",4.1,576.0,PRICE_LEVEL_MODERATE
ChIJY_w0G_pF0xQREH4Voo2pzTI,Selçuklu Nargile,"Cevizlidere, Cevizlidere Cd. 17/B, 06520 Çankaya/Ankara, Türkiye",39.890927,32.81912,"[""cafe"", ""point_of_interest"", ""food"", ""establishment""]",4.9,1125.0,PRICE_LEVEL_MODERATE
ChIJsxV0x-9F0xQRv34bxs7CtD4,Mutlu Günler Fırını - Balgat,"Yukarı Öveçler Mahallesi Lizbon Caddesi, Yukarı Öveçler, 1277. Sk. 11/A, 06520 Çankaya/Ankara, Türkiye",39.884837,32.821868,"[""bakery"", ""dessert_shop"", ""confectionery"", ""point_of_interest"", ""food_store"", ""store"", ""food"", ""establishment""]",4.4,509.0,PRICE_LEVEL_MODERATE
ChIJXyOrIeNF0xQRyL7bPr1sUtA,Liva Pastanesi,"İşçi Blokları Mahallesi, Mevlana Blv. Taurus AVM No:190 D:B-231, İşçi Blokları, 06530 Çankaya/Ankara, Türkiye",39.88811,32.810502,"[""brunch_restaurant"", ""chocolate_shop"", ""breakfast_restaurant"", ""candy_store"", ""dessert_shop"", ""confectionery"", ""cafe"", ""restaurant"", ""point_of_interest"", ""bakery"", ""food_store"", ""store"", ""food"", ""establishment""]",3.6,1511.0,PRICE_LEVEL_EXPENSIVE
ChIJzfTs-XRF0xQRle7c5Th2w3o,Victoria Patisserie - Bistro,"Öveçler, Kabil Cd. No:5, 06460 Çankaya/Ankara, Türkiye",39.8930255,32.8295763,"[""dessert_restaurant"", ""bakery"", ""chocolate_shop"", ""dessert_shop"", ""candy_store"", ""confectionery"", ""food_store"", ""store"", ""restaurant"", ""food"", ""point_of_interest"", ""establishment""]",4.3,1801.0,PRICE_LEVEL_MODERATE
ChIJZ6VSDfNF0xQRaV7jkNE5KT4,CARNAVALE,"Mahallesi, Aşağı Öveçler, Kabil Cd. 48/A, 06460 Çankaya/Ankara, Türkiye",39.8871897,32.828769099999995,"[""bakery"", ""dessert_shop"", ""confectionery"", ""wholesaler"", ""food_store"", ""store"", ""food"", ""point_of_interest"", ""establishment""]",4.3,634.0,PRICE_LEVEL_MODERATE
ChIJfX8J4vRF0xQRUx4HE6RPKGg,Misbaşak - Öveçler,"Öveçler, Kabil Cd. No:23, 06460 Çankaya/Ankara, Türkiye",39.8905905,32.8292728,"[""bakery"", ""dessert_shop"", ""confectionery"", ""food_store"", ""store"", ""food"", ""point_of_interest"", ""establishment""]",4.2,1098.0,PRICE_LEVEL_MODERATE
ChIJ-ZjtbvVF0xQRKK8ehv4S1mk,Combo Lunch Cafe Bistro,"Öveçler, Kabil Cd. 10/A, 06460 Çankaya/Ankara, Türkiye",39.8921955,32.829058,"[""restaurant"", ""pizza_restaurant"", ""hamburger_restaurant"", ""catering_service"", ""food_delivery"", ""coffee_shop"", ""dessert_shop"", ""confectionery"", ""american_restaurant"", ""cafe"", ""food_store"", ""store"", ""food"", ""point_of_interest"", ""establishment""]",4.3,594.0,PRICE_LEVEL_EXPENSIVE
ChIJZSi1p2FP0xQRCOVEZ6y3Yhk,Ekol Patisserie,"Sokullu Mehmet Paşa, Sokullu Mehmet Paşa Cd. 32/A, 06460 Çankaya/Ankara, Türkiye",39.8932241,32.834551,"[""ice_cream_shop"", ""dessert_shop"", ""bakery"", ""confectionery"", ""food_store"", ""store"", ""food"", ""point_of_interest"", ""establishment""]",4.5,671.0,PRICE_LEVEL_MODERATE
ChIJR5dD2WJP0xQRuvb1UJ30MVA,Ekmekistan Fırın & Undan Mamüller,"Harbiye, Dikmen Cd No:140 D:A, 06450 Çankaya/Ankara, Türkiye",39.893051,32.841194,"[""bakery"", ""breakfast_restaurant"", ""food_court"", ""dessert_shop"", ""confectionery"", ""food_store"", ""store"", ""restaurant"", ""food"", ""point_of_interest"", ""establishment""]",4.3,134.0,PRICE_LEVEL_MODERATE
ChIJrTI90kJP0xQRh8b9c6FUGDY,Türkiye Biyologlar Derneği BOTANİK SERA,"Çankaya, 06690 Çankaya/Ankara, Türkiye",39.8870208,32.8569384,"[""coffee_shop"", ""cafe"", ""food_store"", ""store"", ""food"", ""point_of_interest"", ""establishment""]",4.1,321.0,PRICE_LEVEL_MODERATE
ChIJqXLZgn9F0xQRmFtq5KjmtRc,Todo Croissant & Coffee Çankaya,"Türkiye İş Bankası Evleri, Güzeltepe, Ahmet Mithat Efendi Sk. No:3/A, 06690 Çankaya/Ankara, Türkiye",39.8840874,32.8549633,"[""coffee_shop"", ""cafe"", ""food_store"", ""store"", ""food"", ""point_of_interest"", ""establishment""]",4.2,356.0,PRICE_LEVEL_MODERATE
ChIJB3YRl7lP0xQRhMi86Uy_xRI,SEZGİCE TATLI & EKŞİ,"ANSERA TİC. VE KÜLTÜR MERKEZİ, Aziziye, Portakal Çiçeği Sk. NO:17 D:48, 06690 Çankaya/Ankara, Türkiye",39.889581,32.8496283,"[""bakery"", ""food_store"", ""store"", ""food"", ""point_of_interest"", ""establishment""]",4.7,205.0,PRICE_LEVEL_MODERATE
ChIJ1UfjqgNF0xQRxONHvaS5qJ8,Coffee P22 Hoşdere,"Güzeltepe, Halit Ziya Cd No:3 D:7, 06690 Çankaya/Ankara, Türkiye",39.88519,32.849272,"[""coffee_shop"", ""cafe"", ""food_store"", ""store"", ""food"", ""point_of_interest"", ""establishment""]",4.6,472.0,PRICE_LEVEL_MODERATE
ChIJP_5Z25tP0xQRy45_HAl-5qo,Leni Artisan Cafe,"Çankaya, Üsküp Cd. 37/A, 06680 Çankaya/Ankara, Türkiye",39.891129,32.85724,"[""cafe"", ""food"", ""point_of_interest"", ""establishment""]",4.7,322.0,PRICE_LEVEL_MODERATE
ChIJERRa-YdP0xQR_NDwDeFM6IA,ARTSY,"Gastronom Katı, Çankaya, Atakule, 06690 Çankaya/Ankara, Türkiye",39.88656590000001,32.8554594,"[""bar"", ""event_venue"", ""cafe"", ""store"", ""food"", ""point_of_interest"", ""establishment""]",3.7,808.0,PRICE_LEVEL_VERY_EXPENSIVE
ChIJi9bZtpRP0xQRJnuThLTKDBQ,C'viz GOP,"Kazım Özalp, Uğur Mumcu Cd. No:20, 06700 Çankaya/Ankara, Türkiye",39.8915936,32.8711728,"[""ice_cream_shop"", ""bakery"", ""dessert_shop"", ""confectionery"", ""cafe"", ""food_store"", ""store"", ""restaurant"", ""food"", ""point_of_interest"", ""establishment""]",4.0,618.0,PRICE_LEVEL_MODERATE
ChIJ68GwoZRP0xQR9yAAQAZUzQA,Globica Coffee Shop,"Büyükesat, Uğur Mumcu Cd. No:45, 06700 Çankaya/Ankara, Türkiye",39.8924232,32.8748048,"[""coffee_shop"", ""cafe"", ""food_store"", ""store"", ""food"", ""point_of_interest"", ""establishment""]",4.5,760.0,PRICE_LEVEL_MODERATE
ChIJedlAdZNP0xQRJd__DqCAuNE,MADO Gaziosmanpaşa,"Büyükesat, Uğur Mumcu Cd. 31/A, 06700 Çankaya/Ankara, Türkiye",39.8916135,32.873325,"[""fine_dining_restaurant"", ""ice_cream_shop"", ""breakfast_restaurant"", ""coffee_shop"", ""bakery"", ""dessert_shop"", ""confectionery"", ""cafe"", ""food_store"", ""store"", ""restaurant"", ""food"", ""point_of_interest"", ""establishment""]",4.3,466.0,PRICE_LEVEL_EXPENSIVE
ChIJq4qWKsVP0xQRHBw_F9sAIqo,Well'd Coffee,"Gaziosmanpaşa, Uğur Mumcu Cd. No:51/A, 06700 Çankaya/Ankara, Türkiye",39.8928,32.875374,"[""coffee_shop"", ""cafe"", ""food_store"", ""store"", ""food"", ""point_of_interest"", ""establishment""]",4.2,110.0,PRICE_LEVEL_MODERATE
ChIJTQoKxJNP0xQR151qdtkZ8uo,FUNDA PASTANESİ 1959,"Uğur Mumcu Cad, Gaziosmanpaşa, Kuleli Sokağı No: 91/A, 06700 Gaziosmanpaşa/Ankara, Türkiye",39.89165,32.871834,"[""bakery"", ""dessert_shop"", ""confectionery"", ""wholesaler"", ""cafe"", ""food_store"", ""store"", ""food"", ""point_of_interest"", ""establishment""]",4.0,518.0,PRICE_LEVEL_MODERATE
ChIJxVjHuFFP0xQRMqS5B2FaHPE,Quatro coffee house,"Büyükesat, Uğur Mumcu Cd. No:46, 06700 Çankaya/Ankara, Türkiye",39.8923027,32.8752587,"[""coffee_shop"", ""cafe"", ""food_store"", ""store"", ""food"", ""point_of_interest"", ""establishment""]",4.4,144.0,PRICE_LEVEL_MODERATE
ChIJV3886O5P0xQRsHgU-UiWzRs,MEHAS SİMİT CAFE & PASTANESİ,"Kırkkonaklar, Şemsettin Günaltay Cd., 06610 Çankaya/Ankara, Türkiye",39.8880712,32.883706800000006,"[""cafe"", ""bagel_shop"", ""breakfast_restaurant"", ""dessert_restaurant"", ""dessert_shop"", ""bakery"", ""confectionery"", ""food_store"", ""store"", ""restaurant"", ""food"", ""point_of_interest"", ""establishment""]",4.1,193.0,PRICE_LEVEL_MODERATE
ChIJu9C8pVpQ0xQRenjlXOV9Iw4,Starbucks,"Akşemsettin Mah. Doğukent Cad. No:215 K:Zemin, Akşemsettin, Anatolium, 06480 Mamak/Ankara, Türkiye",39.8888064,32.9324097,"[""coffee_shop"", ""cafe"", ""food_store"", ""store"", ""point_of_interest"", ""food"", ""establishment""]",3.8,686.0,PRICE_LEVEL_MODERATE
ChIJ8a04qPNR0xQR0tEPsW5kEO4,Artgurme coffee bistro,"Akşemsettin, 06480 Mamak/Ankara, Türkiye",39.892524400000006,32.9349846,"[""coffee_shop"", ""cafe"", ""food_store"", ""store"", ""restaurant"", ""food"", ""point_of_interest"", ""establishment""]",3.7,696.0,PRICE_LEVEL_MODERATE
ChIJFQ9ypANR0xQRHhYrCYM_dRw,Chocolabs Mamak Doğukent,"Akşemsettin, Sultan Fatih Cd. No: 30 L, 06480 Mamak/Ankara, Türkiye",39.8916696,32.9348141,"[""cafe"", ""food"", ""point_of_interest"", ""establishment""]",4.0,246.0,PRICE_LEVEL_MODERATE
ChIJKV_SvfY50xQRxMFqv2VRZpw,Ror Cafe Ümitköy,"mutluköy sitesi 1948.sokak no:2 Ümitköy / Ankara, Mutlukent, 06770 Çankaya/Ankara, Türkiye",39.8949318,32.7045432,"[""cafe"", ""food"", ""point_of_interest"", ""establishment""]",4.3,784.0,PRICE_LEVEL_MODERATE
ChIJ6b-spmI40xQRFh-3AW8-hUU,COCO CHEF,"Mutluköy mah, 1950. Sk. No:25, 06800 Çankaya/Ankara, Türkiye",39.895273,32.7059039,"[""cafe"", ""chocolate_shop"", ""dessert_shop"", ""candy_store"", ""confectionery"", ""food_store"", ""store"", ""food"", ""point_of_interest"", ""establishment""]",4.4,1063.0,PRICE_LEVEL_MODERATE
ChIJi5gFSZc_0xQRnrvBtm1ojEw,Senorita Chocolate Ümitköy,"Mutlukent Mahallesi, Ümit, 1951. Sk. Mutlukent Sitesi No:2, 06810 Çankaya/Ankara, Türkiye",39.8964569,32.7060727,"[""chocolate_shop"", ""breakfast_restaurant"", ""candy_store"", ""coffee_shop"", ""dessert_shop"", ""confectionery"", ""cafe"", ""restaurant"", ""point_of_interest"", ""food_store"", ""store"", ""food"", ""establishment""]",4.5,208.0,PRICE_LEVEL_MODERATE
ChIJXe4cCLo50xQRwYwzanbt04E,Walker's Ümitköy,"Mutlukent, 1950. Sk. No:1, 06800 Çankaya/Ankara, Türkiye",39.8956241,32.7052304,"[""coffee_shop"", ""cafe"", ""point_of_interest"", ""food_store"", ""store"", ""food"", ""establishment""]",4.3,389.0,PRICE_LEVEL_MODERATE
ChIJSZOKcvE50xQRgyTH7uOmPNs,Kronotrop Ümitköy,"Mutlukent mahallesi 1943. Cadde, Mutlukent, Ümitköy No:7, 06800 Çankaya/Ankara, Türkiye",39.894121,32.70472,"[""coffee_shop"", ""cafe"", ""point_of_interest"", ""food_store"", ""store"", ""food"", ""establishment""]",3.9,474.0,PRICE_LEVEL_MODERATE
ChIJuSseBVI_0xQRTBFN0qrI988,Paper Roasting Coffee & Eatery - Ümitköy,"Mutlukent Mahallesi, Mutluköy Sitesi 1947 Sokak, Mutlukent, Ümitköy No:18, 06810 Çankaya/Ankara, Türkiye",39.8968271,32.7053323,"[""coffee_shop"", ""cafe"", ""point_of_interest"", ""food_store"", ""store"", ""food"", ""establishment""]",4.5,440.0,PRICE_LEVEL_MODERATE
