id,name,formatted_address,lat,lng,types,rating,user_rating_count,price_level
ChIJDzSz3DFm0xQRNhETrnPNIoQ,Beynam Ataturk Forest,"Beynam, 06720 Balâ/Ankara, Türkiye",39.6686076,32.9177951,"[""park"", ""point_of_interest"", ""establishment""]",3.7,1037.0,PRICE_LEVEL_MODERATE
ChIJg2SZw3NP0xQR4uJU-hJhXLM,BAKAP Parkı,"Karaoğlan, BAKAP, Karaoğlan, 06830 Gölbaşı/Ankara, Türkiye",39.7265685,32.8074272,"[""botanical_garden"", ""park"", ""point_of_interest"", ""establishment""]",4.4,758.0,PRICE_LEVEL_MODERATE
ChIJcad33Hhp0xQRPwnINK42BCI,BAKAP / BAŞKENT ANKARA KIRSAL KALKINMA PROJESİ,"Karaoğlan, 06830 Gölbaşı/Ankara, Türkiye",39.7251139,32.8106539,"[""park"", ""point_of_interest"", ""establishment""]",4.7,115.0,PRICE_LEVEL_MODERATE
ChIJsY6ZDbN30xQR3KNrH9pvEv4,ASELSAN Göleti,"Karaoğlan, 06830 Gölbaşı/Ankara, Türkiye",39.723505,32.8176492,"[""park"", ""point_of_interest"", ""establishment""]",4.8,345.0,PRICE_LEVEL_MODERATE
ChIJV1WvOPBB0xQRKFn_7nDsmMU,Sevgi Çiçeği Millet Bahçesi,"Karşıyaka, QQ6M+56, 06830 Gölbaşı/Ankara, Türkiye",39.7600958,32.7832863,"[""park"", ""point_of_interest"", ""establishment""]",4.2,225.0,PRICE_LEVEL_MODERATE
ChIJZSuj5n9q0xQRE6xoKK75g_8,KARMEN LOFT VİLLALARI,"Karşıyaka, 06830 Gölbaşı/Ankara, Türkiye",39.7652081,32.7637323,"[""park"", ""point_of_interest"", ""establishment""]",4.2,114.0,PRICE_LEVEL_MODERATE
ChIJaUvOpgtB0xQRop6dpvqUkDg,Gölbaşı Bahar Piknik Alanı,"Shell benzinlik karşısı, Karşıyaka, Haymana Yolu Blv. no:183, 06830 Gölbaşı/Ankara, Türkiye",39.7685315,32.7706317,"[""picnic_ground"", ""point_of_interest"", ""establishment""]",3.6,380.0,PRICE_LEVEL_MODERATE
ChIJ2TscXipB0xQR4LBv4B6nOPs,Mogan Gölü Mangal Alanı,"Karşıyaka, Mogan Gölü Rekreasyon Alanı, 06830 Gölbaşı/Ankara, Türkiye",39.7655531,32.7820588,"[""park"", ""point_of_interest"", ""establishment""]",4.3,732.0,PRICE_LEVEL_MODERATE
ChIJ1TCwlMNB0xQRpmRaKo-PSEQ,Ankara Büyükşehir Belediyesi Mogan Park,"Karşıyaka, 724. Sk., 06830 Gölbaşı/Ankara, Türkiye",39.7809156,32.7877897,"[""park"", ""tourist_attraction"", ""point_of_interest"", ""establishment""]",4.4,4092.0,PRICE_LEVEL_MODERATE
ChIJS0Mzd8JB0xQR8GLuL6FDF7g,Mogan golu guzel piknik yeri,"Karşıyaka, 06830 Gölbaşı/Ankara, Türkiye",39.7714144,32.7855308,"[""picnic_ground"", ""point_of_interest"", ""establishment""]",4.4,837.0,PRICE_LEVEL_MODERATE
ChIJ2aoaMLgX0xQRrJcHsl7pqsE,Karayolları Parkı,"Turkuaz, Turkuaz TOKİ Konutları 97 C, 06815 Yenimahalle/Ankara, Türkiye",39.806812,32.5704597,"[""park"", ""point_of_interest"", ""establishment""]",4.3,195.0,PRICE_LEVEL_MODERATE
ChIJ4T3HI4JB0xQR_rtTS_fVTQ8,Atatürk Beach Park,"Gaziosmanpaşa, Sahil Cd. No:3, 06830 Gölbaşı/Ankara, Türkiye",39.7896051,32.8032425,"[""park"", ""point_of_interest"", ""establishment""]",4.4,5037.0,PRICE_LEVEL_MODERATE
ChIJyYf_LWFB0xQRZEZtl2CqkjE,GÖLBAŞI ŞEHİR PARKI,"Seğmenler, Beyşehir Gölü Cd., 06830 Gölbaşı/Ankara, Türkiye",39.7942924,32.819326800000006,"[""park"", ""point_of_interest"", ""establishment""]",4.4,1922.0,PRICE_LEVEL_MODERATE
ChIJEeIKBNEX0xQRaTlh4N_65R8,Saklı Bahçe Park Piknik,"Yapracık, Yukarı Yurtçu Yolu No:242, 06815 Etimesgut/Ankara, Türkiye",39.8279086,32.5595983,"[""picnic_ground"", ""point_of_interest"", ""establishment""]",4.3,1170.0,PRICE_LEVEL_MODERATE
ChIJx8h1DwwZ0xQRTmFWcXlbk7g,Bağbaşı Piknik Alanı,"Yapracık, Toki Yapracık Konutları Yanı, Atayurt, Sincan Yolu No:23, 06815 Etimesgut/Ankara, Türkiye",39.8355557,32.5273387,"[""picnic_ground"", ""restaurant"", ""food"", ""point_of_interest"", ""establishment""]",4.5,153.0,PRICE_LEVEL_MODERATE
ChIJndZ9rdAX0xQROdyadKQqr5o,Neşeli köy tepetaklak ev,"Turkuaz, 06815 Etimesgut/Ankara, Türkiye",39.8218534,32.5719074,"[""cafeteria"", ""amusement_center"", ""park"", ""point_of_interest"", ""establishment""]",3.9,2694.0,PRICE_LEVEL_MODERATE
ChIJddINHctB0xQRCPYOAypQgBo,Budak Town,"Kızılcaşar Mahallesi, İncek, 1210. Sk. No:2, 06830 Gölbaşı/Ankara, Türkiye",39.8285861,32.734361,"[""restaurant"", ""picnic_ground"", ""corporate_office"", ""food"", ""point_of_interest"", ""establishment""]",3.8,1380.0,PRICE_LEVEL_MODERATE
ChIJTeRARMJB0xQRls4O3sTjycE,Mogan parkı tesisleri,"Karşıyaka, Mogan Gölü Rekreasyon Alanı, 06830 Gölbaşı/Ankara, Türkiye",39.7720117,32.7840127,"[""hiking_area"", ""park"", ""sports_activity_location"", ""point_of_interest"", ""establishment""]",4.5,187.0,PRICE_LEVEL_MODERATE
ChIJR5YYfN1B0xQRKg6dsAgkJZo,Mogan Park Observation Tower,"Karşıyaka, 06830 Gölbaşı/Ankara, Türkiye",39.7664168,32.7856109,"[""park"", ""point_of_interest"", ""establishment""]",4.5,1291.0,PRICE_LEVEL_MODERATE
ChIJf3bca3dB0xQRxgnhtwMOQX8,Şen Halı Saha,"Karşıyaka, 606. Cd. no:5, 06830 Gölbaşı/Ankara, Türkiye",39.7826154,32.780967,"[""stadium"", ""athletic_field"", ""event_venue"", ""sports_complex"", ""sports_activity_location"", ""point_of_interest"", ""establishment""]",4.3,121.0,PRICE_LEVEL_MODERATE
ChIJO7KSkHdB0xQRG-V9z0K4JPc,Golbasi Mogan Parki,"Kfncnxmzözlxğals, 06350 Gölbaşı/Ankara, Türkiye",39.794385,32.796236,"[""park"", ""point_of_interest"", ""establishment""]",4.4,318.0,PRICE_LEVEL_MODERATE
ChIJb-ADqHBB0xQRCGzclJcJeIo,Gölbaşı Municipality Cemre Park,"Karşıyaka Mahallesi, Haymana Yolu Bulvarı, Karşıyaka, 06830 Gölbaşı/Ankara, Türkiye",39.796912,32.797765,"[""park"", ""point_of_interest"", ""establishment""]",3.9,196.0,PRICE_LEVEL_MODERATE
ChIJlWONBttD0xQRy5OpTeoiMEc,Teiaş Lojmanları,"Eymir, TEK Lojmanı, 06830 Gölbaşı/Ankara, Türkiye",39.7992972,32.8185288,"[""garden"", ""park"", ""point_of_interest"", ""establishment""]",4.5,243.0,PRICE_LEVEL_MODERATE
ChIJ5YN7O-lB0xQR3h739BZKbWE,Mogan Gölü,"Gaziosmanpaşa, Atatürk Sahil Yolu, 06830 Gölbaşı/Ankara, Türkiye",39.7876969,32.8047386,"[""park"", ""point_of_interest"", ""establishment""]",4.6,286.0,PRICE_LEVEL_MODERATE
ChIJgZkjO9VD0xQRZQz4LdlaiQ8,Mevlana Parkı,"Bahçelievler, 296. Sk. No:35, 06830 Gölbaşı/Ankara, Türkiye",39.7890509,32.8104972,"[""park"", ""point_of_interest"", ""establishment""]",4.1,504.0,PRICE_LEVEL_MODERATE
ChIJRQQiuIBB0xQRbsDfTsyrK_E,Alparslan Türkeş Parkı,"Bahçelievler, 06830 Gölbaşı/Ankara, Türkiye",39.7853725,32.8066788,"[""park"", ""point_of_interest"", ""establishment""]",4.4,457.0,PRICE_LEVEL_MODERATE
ChIJr4IrwdJD0xQRSqqem4T5ePQ,Garden Park Golbasi,"Bahçelievler, 296. Sk., 06830 Gölbaşı/Ankara, Türkiye",39.786661,32.8181269,"[""park"", ""point_of_interest"", ""establishment""]",4.1,220.0,PRICE_LEVEL_MODERATE
ChIJHUmc_MMX0xQR9kq25OYQLNk,Turkuaz Parkı,"Turkuaz, Turkuaz TOKİ Konutları 96 P, 06815 Yenimahalle/Ankara, Türkiye",39.8152025,32.5649649,"[""hiking_area"", ""sports_activity_location"", ""park"", ""point_of_interest"", ""establishment""]",4.4,145.0,PRICE_LEVEL_MODERATE
ChIJszt5QPBD0xQROuGrwHH_gAY,Metu Eymir Lake Facility,"Oran Mh. Eymir Gölü Pk:06400 Çankaya/ankara, Oran, 06450 Çankaya/Ankara, Türkiye",39.8135937,32.8215188,"[""park"", ""point_of_interest"", ""establishment""]",4.4,973.0,PRICE_LEVEL_MODERATE
ChIJURR9ofxD0xQREpSCDJzoh6s,Eymir Gölü,"Eymir, Eymir Gölü Yolu, 06830 Gölbaşı/Ankara, Türkiye",39.810094,32.8206656,"[""park"", ""point_of_interest"", ""establishment""]",4.5,140.0,PRICE_LEVEL_MODERATE
ChIJb78bnYlE0xQRyFhRZVAiI7A,Eymir Garden,"Karataş, Mahallesi, 06450 Çankaya/Ankara, Türkiye",39.8237214,32.856236599999995,"[""restaurant"", ""breakfast_restaurant"", ""food_court"", ""garden"", ""park"", ""point_of_interest"", ""food"", ""establishment""]",4.0,824.0,PRICE_LEVEL_MODERATE
ChIJBehrpmBE0xQR_X2c1uyolGs,BULUT AİLE BAHÇESİ,"Dumlupınar, Eymir Gölü Yolu No:198, 06450 Çankaya/Ankara, Türkiye",39.82758260000001,32.8486237,"[""restaurant"", ""picnic_ground"", ""point_of_interest"", ""food"", ""establishment""]",4.4,133.0,PRICE_LEVEL_MODERATE
ChIJ2W3Ojaoi0xQRjS2QgwLTyc4,Bağbaşı Parkı,"Atayurt, Toki Yapracık Konutları 110 K, 06815 Yenimahalle/Ankara, Türkiye",39.8390925,32.5350013,"[""park"", ""point_of_interest"", ""establishment""]",4.1,128.0,PRICE_LEVEL_MODERATE
ChIJl2rDXFM90xQR3iNckJFWyBw,29 Ekim Parkı,"Atayurt, Toki Yapracık Konutları 107 B, 06815 Etimesgut/Ankara, Türkiye",39.842235,32.5384616,"[""park"", ""point_of_interest"", ""establishment""]",4.3,115.0,PRICE_LEVEL_MODERATE
ChIJYc9BJac90xQRjIzZXol7P0o,BOTAŞ Piknik Alanı,"Yapracık, 06790 Etimesgut/Ankara, Türkiye",39.8462856,32.584724699999995,"[""botanical_garden"", ""park"", ""point_of_interest"", ""establishment""]",4.3,132.0,PRICE_LEVEL_MODERATE
ChIJg0jP9rI_0xQREQJ2y6o5Lfs,Çamlık Mangal Evi Aile Piknik Alanı - Serpme Kahvaltı & Mangal,"Alacaatlı, Türkkonut Blv No:41, 06810 Çankaya/Ankara, Türkiye",39.8397393,32.6681904,"[""picnic_ground"", ""breakfast_restaurant"", ""restaurant"", ""food"", ""point_of_interest"", ""establishment""]",4.2,507.0,PRICE_LEVEL_MODERATE
ChIJiQ_Zn1g-0xQR1ZuZliQRuW8,Türkgücü Ülküspor Social Facilities,"Alacaatlı-Dodurga Yolu Türkkonut karșısı Çayyolu, Türkgücü Ülküspor Devlet Bahçeli Tesisleri, Dodurga, 06810 Çankaya/Ankara, Türkiye",39.8368044,32.6576591,"[""sports_complex"", ""park"", ""sports_activity_location"", ""point_of_interest"", ""establishment""]",4.1,105.0,PRICE_LEVEL_MODERATE
ChIJZV5jcyA_0xQREdqOX6LPIrk,Çankaya Belediyesi Vatan Parkı ve Piknik Alanı,"Alacaatlı, 4982. Cadde, 06810 Çankaya/Ankara, Türkiye",39.8516231,32.6734565,"[""park"", ""restaurant"", ""food"", ""point_of_interest"", ""establishment""]",4.3,1532.0,PRICE_LEVEL_INEXPENSIVE
ChIJK1IjyAs_0xQR3ULBxHgUsWo,Alaçatı piknik Ankara,"Alacaatlı, Alacaatlı Cd. No: 160, 06810 Çankaya/Ankara, Türkiye",39.8443835,32.6735819,"[""picnic_ground"", ""park"", ""restaurant"", ""food"", ""point_of_interest"", ""establishment""]",4.5,157.0,PRICE_LEVEL_MODERATE
ChIJT3C2WblG0xQRozkNqUV08UA,Ahlatlıbel Atatürk Parkı,"Ahlatlıbel, Çankaya Bld. Dinlenme ve Spor Tesisleri, 06805 Çankaya/Ankara, Türkiye",39.8430779,32.7919079,"[""park"", ""tourist_attraction"", ""point_of_interest"", ""establishment""]",4.6,8357.0,PRICE_LEVEL_MODERATE
ChIJT2gbNsdG0xQRXMcLWqQftQo,Ptt Ahlatlıbel Sosyal Tesisleri,"Ahlatlıbel, RQXP+G6, 06805 Çankaya/Ankara, Türkiye",39.846883,32.7845003,"[""park"", ""point_of_interest"", ""establishment""]",4.2,1014.0,PRICE_LEVEL_MODERATE
ChIJv30RWGpB0xQRdgsxkRDTpWI,METU Forest,"Oran, 06550 Çankaya/Ankara, Türkiye",39.8339899,32.8058155,"[""hiking_area"", ""national_park"", ""tourist_attraction"", ""park"", ""sports_activity_location"", ""point_of_interest"", ""establishment""]",4.5,6749.0,PRICE_LEVEL_MODERATE
ChIJsbepeiJE0xQR_LxJ_7TGdD4,Türkiye Kadınlar Federasyonu Hatıra Ormanı,"Oran, Turan Güneş Blv., 06450 Çankaya/Ankara, Türkiye",39.8438856,32.8161004,"[""national_park"", ""park"", ""point_of_interest"", ""establishment""]",4.6,335.0,PRICE_LEVEL_MODERATE
ChIJD7Py_SZE0xQRj2d85G-ENFM,Atapark,"Oran, Hayri Çeçen Sk. 547/B, 06450 Çankaya/Ankara, Türkiye",39.8498213,32.811310899999995,"[""park"", ""point_of_interest"", ""establishment""]",3.7,167.0,PRICE_LEVEL_MODERATE
ChIJWU4LvZRF0xQRXkKrB4C-Ebw,Çiftlik 56,"Yeşilkent, 9. Cd., 06705 Çankaya/Ankara, Türkiye",39.8405336,32.8621615,"[""restaurant"", ""garden"", ""breakfast_restaurant"", ""cafe"", ""park"", ""food"", ""point_of_interest"", ""establishment""]",4.0,497.0,PRICE_LEVEL_MODERATE
ChIJMV_hFwBF0xQRKJx5NpMS7P4,İmrahor Millet Bahçesi,"Dumlupınar, 06450 Çankaya/Ankara, Türkiye",39.835028,32.8511932,"[""park"", ""point_of_interest"", ""establishment""]",3.6,141.0,PRICE_LEVEL_MODERATE
ChIJoS3XsjdE0xQRBZURAYMNLHs,Panora Tepe,"no16, Oran, Ferit Recai Ertuğrul Cd., 06450 Çankaya/Ankara, Türkiye",39.8491294,32.8290547,"[""national_park"", ""park"", ""point_of_interest"", ""establishment""]",4.2,177.0,PRICE_LEVEL_MODERATE
ChIJOeKOmJhQ0xQRExqOVhTnap8,Kusunlar Toki Park,"Zirvekent, 06635 Mamak/Ankara, Türkiye",39.8551864,32.9658029,"[""park"", ""point_of_interest"", ""establishment""]",3.3,322.0,PRICE_LEVEL_MODERATE
ChIJTQYOYsY-0xQRnu4nUcmVd2c,Yaşar Kemal Parkı,"Yaşamkent, 3150. Sk., 06810 Çankaya/Ankara, Türkiye",39.8625334,32.6549683,"[""park"", ""tourist_attraction"", ""point_of_interest"", ""establishment""]",4.6,215.0,PRICE_LEVEL_MODERATE
ChIJa6qsP74-0xQRMBhcG3_1_1A,Dr. Fazıl Küçük Parkı,"Yaşamkent, 3208. Sk., 06810 Çankaya/Ankara, Türkiye",39.85958,32.646267,"[""park"", ""point_of_interest"", ""establishment""]",4.4,322.0,PRICE_LEVEL_MODERATE
ChIJw4sdZsU40xQRuerMJ0OC_p0,Milli Atlet Muharrem Dalkılıç Koşu Yolu,"Prof. Dr. Ahmet Taner Kışlalı, 2853. Cadde, 06810 Çankaya/Ankara, Türkiye",39.8742926,32.6859556,"[""park"", ""point_of_interest"", ""establishment""]",4.6,876.0,PRICE_LEVEL_MODERATE
ChIJL0cYsaY_0xQRlm-vxglBiLI,Alaca Garden,"Alacaatlı Mh. Alacaatlı Cd. 4939. Sk, Alacaatlı, No:8, 06810 Çankaya/Ankara, Türkiye",39.8549905,32.676382499999995,"[""garden"", ""park"", ""point_of_interest"", ""establishment""]",4.0,240.0,PRICE_LEVEL_MODERATE
ChIJheQUldk40xQRq8to1oJVJCU,Atapark,"Prof. Dr. Ahmet Taner Kışlalı, Banga Bandhu Şeyh Mucibur Rahman Blv. No:94, 06810 Yenimahalle/Ankara, Türkiye",39.8777578,32.6775331,"[""park"", ""point_of_interest"", ""establishment""]",4.4,507.0,PRICE_LEVEL_MODERATE
ChIJc3C7q9w40xQRZQFg5SBtmyE,The Ceyhun Atuf Kansu,"Prof. Dr. Ahmet Taner Kışlalı, 2933. Sk., 06810 Çankaya/Ankara, Türkiye",39.8792222,32.6842058,"[""park"", ""point_of_interest"", ""establishment""]",4.4,464.0,PRICE_LEVEL_MODERATE
ChIJK50IHaA40xQRX1SnC4iokwA,Angora Houses Martyrs' Park,"Mutlukent, Yahya Kemal Cd., 06800 Çankaya/Ankara, Türkiye",39.872937,32.717269,"[""park"", ""point_of_interest"", ""establishment""]",4.3,217.0,PRICE_LEVEL_MODERATE
ChIJrUcMC5dP0xQRFsyKbTJ5vaA,Yeşil Vadi,"Gaziosmanpaşa, Kırlangıç Sk. No:7, 06700 Çankaya/Ankara, Türkiye",39.8670359,32.7404195,"[""botanical_garden"", ""park"", ""restaurant"", ""point_of_interest"", ""food"", ""establishment""]",4.5,428.0,PRICE_LEVEL_MODERATE
ChIJzX6Vp2xH0xQRNwwGoUbk5v8,Beytepe Campus Green Valley,"23-, Üniversiteler, Hacettepe Beytepe Kampüsü No:27, 06800 Çankaya/Ankara, Türkiye",39.8665405,32.740413100000005,"[""park"", ""point_of_interest"", ""establishment""]",4.6,1384.0,PRICE_LEVEL_MODERATE
ChIJR-LREm1H0xQRaI-mMKVPJKw,Hacettepe Göleti,"Üniversiteler, Hacettepe Beytepe Kampüsü 29 A, 06800 Çankaya/Ankara, Türkiye",39.8695431,32.7395435,"[""park"", ""point_of_interest"", ""establishment""]",4.6,110.0,PRICE_LEVEL_MODERATE
ChIJBzl6O4NF0xQRZzx46t5P5lI,2 Temmuz Anıt Parkı,"Keklik Pınarı, 06450 Çankaya/Ankara, Türkiye",39.8677666,32.8292816,"[""park"", ""point_of_interest"", ""establishment""]",4.5,140.0,PRICE_LEVEL_MODERATE
ChIJq9iOJ8FF0xQRNtkrxXkAnSM,Çelikler Sitesi,"Ata, Dikmen Cd No:372, 06460 Çankaya/Ankara, Türkiye",39.8708352,32.8281065,"[""park"", ""point_of_interest"", ""establishment""]",3.8,212.0,PRICE_LEVEL_MODERATE
ChIJEd7r595F0xQRwVnCXF-7rUg,Gökkuşaği Koşuyolu Parkı,"Gökkuşağı, Gökkuşağı Cd. No:59, 06450 Çankaya/Ankara, Türkiye",39.8763541,32.8117703,"[""park"", ""point_of_interest"", ""establishment""]",4.3,293.0,PRICE_LEVEL_MODERATE
ChIJawO2-dFF0xQRp5G5U5dG9PI,Atatürk Parkı,"Keklik Pınarı, 904. Sk. No:10, 06450 Çankaya/Ankara, Türkiye",39.863845000000005,32.8190959,"[""park"", ""point_of_interest"", ""establishment""]",4.5,183.0,PRICE_LEVEL_MODERATE
ChIJ7xbHUtxF0xQRiGZkh7nLMV4,Misket Parkı,"Gökkuşağı, Ceyhun Atuf Kansu Caddesi & 1199. Sokak No:201, 06460 Çankaya/Ankara, Türkiye",39.8761876,32.8163025,"[""park"", ""point_of_interest"", ""establishment""]",3.9,107.0,PRICE_LEVEL_MODERATE
ChIJw7mVLMJF0xQRNCuzAYnuC8g,Şht. Üstteğmen Muharrem Kaleli Park,"Ata, 1073. Cd. No:62, 06460 Çankaya/Ankara, Türkiye",39.873571,32.824948899999995,"[""park"", ""point_of_interest"", ""establishment""]",4.1,114.0,PRICE_LEVEL_MODERATE
ChIJLQi9BsVF0xQR4xDBQHGd6sY,Enver Kuray Park,"Huzur, Cevizlidere Cad./1110. Sok., 06460 Çankaya/Ankara, Türkiye",39.8691999,32.8224627,"[""park"", ""point_of_interest"", ""establishment""]",4.2,109.0,PRICE_LEVEL_MODERATE
ChIJBbjO7LhF0xQRlYTlqDeTeOU,Çayda Çıra Parkı,"Mürsel Uluç, 959. Sk. No:2, 06450 Çankaya/Ankara, Türkiye",39.8672764,32.8324526,"[""park"", ""point_of_interest"", ""establishment""]",4.4,258.0,PRICE_LEVEL_MODERATE
ChIJ7Ujz37VF0xQRma4RqjdgQlg,İsmet İnönü Parkı,"Mürsel Uluç, 976. Sk. 6 B, 06450 Çankaya/Ankara, Türkiye",39.859615,32.8325238,"[""park"", ""tourist_attraction"", ""point_of_interest"", ""establishment""]",4.3,165.0,PRICE_LEVEL_MODERATE
ChIJvbLONZFF0xQRLNw5XA8ZJFM,Dort Mevsim Parki,"Osman Temiz, 752. Caddesi No:12, 06450 Çankaya/Ankara, Türkiye",39.8761326,32.838438,"[""park"", ""point_of_interest"", ""establishment""]",4.1,241.0,PRICE_LEVEL_MODERATE
ChIJW2p4GJZF0xQRbl5raeR2f1I,Kıvırcık Ali Parkı,"Osman Temiz, 1034. Sk. 12 C, 06450 Çankaya/Ankara, Türkiye",39.8720952,32.8380607,"[""park"", ""point_of_interest"", ""establishment""]",4.0,160.0,PRICE_LEVEL_MODERATE
ChIJC6gX0LlF0xQR6IsuoDfNn6Y,Painters Park,"Mürsel Uluç, 980. Sk. No:6, 06450 Çankaya/Ankara, Türkiye",39.8639618,32.8342908,"[""park"", ""point_of_interest"", ""establishment""]",4.0,101.0,PRICE_LEVEL_MODERATE
ChIJuYd9e5VF0xQRWO4kdnCtuJA,Kemal Sunal Park,"Mahallesi, Şehit Cengiz Karaca, Dikmen Cd No:338, 06450 Çankaya/Ankara, Türkiye",39.8734401,32.8332759,"[""park"", ""point_of_interest"", ""establishment""]",4.3,132.0,PRICE_LEVEL_MODERATE
ChIJWSVSjZNF0xQRO7c2SrMB05Q,Barış Parkı,"Aydınlar, Dadaloğlu Sk. No:11, 06460 Çankaya/Ankara, Türkiye",39.8777374,32.8350383,"[""park"", ""point_of_interest"", ""establishment""]",3.9,118.0,PRICE_LEVEL_MODERATE
ChIJUakAwGRF0xQR80joeNEV5NU,Lausanne Park,"Birlik, 06610 Çankaya/Ankara, Türkiye",39.875292,32.8661888,"[""park"", ""tourist_attraction"", ""point_of_interest"", ""establishment""]",4.5,3351.0,PRICE_LEVEL_MODERATE
ChIJV3zlh1dF0xQRSiFg6WCfEAk,Zafer Park,"Birlik Mahallesi 451. Cadde ile 429. Sokak Arası Zirvekent-2 Yanı, Birlik, 06610 Çankaya/Ankara, Türkiye",39.8721407,32.8710418,"[""park"", ""point_of_interest"", ""establishment""]",4.6,2160.0,PRICE_LEVEL_MODERATE
ChIJhxMVQGFF0xQRYiHaxhkEjN8,İsmet İnönü Parkı Birlik Mahallesi,"Birlik, Zirvekent No:50, 06610 Çankaya/Ankara, Türkiye",39.8758035,32.8718203,"[""park"", ""point_of_interest"", ""establishment""]",4.6,1557.0,PRICE_LEVEL_MODERATE
ChIJ1zQcEHpF0xQRyJ_k5aWJF2s,Sancak Parkı,"Yıldızevler, 709. Sk. No:4, 06550 Çankaya/Ankara, Türkiye",39.8746681,32.859396,"[""park"", ""point_of_interest"", ""establishment""]",4.2,118.0,PRICE_LEVEL_MODERATE
ChIJJbCm911F0xQR7jl3rzjmx70,Doğukent Running And Walking Park,"Birlik, 06610 Çankaya/Ankara, Türkiye",39.872631,32.8762879,"[""park"", ""point_of_interest"", ""establishment""]",4.4,126.0,PRICE_LEVEL_MODERATE
ChIJFxbbFyRX0xQRwcoIZ8Grpq8,Cyprus village Canyon,"Kıbrıs, 06270 Mamak/Ankara, Türkiye",39.8686154,33.0043566,"[""hiking_area"", ""park"", ""sports_activity_location"", ""point_of_interest"", ""establishment""]",3.7,755.0,PRICE_LEVEL_MODERATE
ChIJdbfsXmg70xQRU1XjkCFbr88,Te-Ora Cafe Bistro Fırın,"Bağlıca, Bağlıca Blv. No:104, 06790 Etimesgut/Ankara, Türkiye",39.8911144,32.6234002,"[""restaurant"", ""garden"", ""cafeteria"", ""bakery"", ""tea_house"", ""food_store"", ""park"", ""store"", ""food"", ""point_of_interest"", ""establishment""]",3.8,221.0,PRICE_LEVEL_MODERATE
ChIJZzPez2c50xQRKsP9UdVHFP4,Yargı PARKI,"Bağlıca, Ulupınar Cd. 62 A, 06790 Etimesgut/Ankara, Türkiye",39.8989322,32.6389533,"[""park"", ""point_of_interest"", ""establishment""]",4.1,383.0,PRICE_LEVEL_MODERATE
ChIJqUknk2w50xQRu0FKSQnSu-8,Doğapark Sitesi,"Bağlıca, Murat Cd. No:5, 06790 Etimesgut/Ankara, Türkiye",39.9004901,32.648413399999995,"[""park"", ""point_of_interest"", ""establishment""]",4.3,127.0,PRICE_LEVEL_MODERATE
ChIJRa3eweg40xQRzHxhhcpOYkk,Ahmet Taner Kışlalı Parkı,"Koru, 2580. Sk. No:2, 06810 Yenimahalle/Ankara, Türkiye",39.8867701,32.6868485,"[""park"", ""point_of_interest"", ""establishment""]",4.3,302.0,PRICE_LEVEL_MODERATE
ChIJy0PEMmA40xQRctC1Ky2qZfs,Sarı Zeybek Park,"Ümit, 2483. Cd., 06810 Çankaya/Ankara, Türkiye",39.8969732,32.6995252,"[""park"", ""point_of_interest"", ""establishment""]",4.6,134.0,PRICE_LEVEL_MODERATE
ChIJfQ197tw40xQRgBSmZuadTDo,Bahattin Dinçmen Parkı,"Koru, 2652. Sk. No:27, 06810 Yenimahalle/Ankara, Türkiye",39.88095,32.6823019,"[""hiking_area"", ""park"", ""sports_activity_location"", ""point_of_interest"", ""establishment""]",4.4,458.0,PRICE_LEVEL_MODERATE
ChIJG3xDe4BH0xQRv_27UjzawqY,Republic Park,"Mutlukent, 2038. Sk. No:17, 06800 Çankaya/Ankara, Türkiye",39.892305,32.720130999999995,"[""park"", ""point_of_interest"", ""establishment""]",4.5,101.0,PRICE_LEVEL_MODERATE
ChIJGYNjS4Y40xQROJi1qFCnvkg,Makiş Parkı,"Mutlukent, 1931. Sk. No:9, 06800 Çankaya/Ankara, Türkiye",39.8917113,32.7087842,"[""park"", ""point_of_interest"", ""establishment""]",4.2,118.0,PRICE_LEVEL_MODERATE
ChIJvWt47aJP0xQRyj1QgXRewGc,Herd's BBQ & Burger,"Bilkent Station, Üniversiteler, No: 3/71, 06800 Çankaya/Ankara, Türkiye",39.8833948,32.7590358,"[""hamburger_restaurant"", ""barbecue_restaurant"", ""wine_bar"", ""steak_house"", ""american_restaurant"", ""vegetarian_restaurant"", ""garden"", ""park"", ""bar"", ""restaurant"", ""point_of_interest"", ""food"", ""establishment""]",4.3,744.0,PRICE_LEVEL_MODERATE
ChIJzYVGqupH0xQRIZIVr8qho_c,Türkiye Milli Botanik Bahçesi,"Üniversiteler Mah. Dumlupınar Bulvarı, Eskişehir Yolu Yeni şehir Hastanesi Bağlantı yolu, Üniversiteler, 6001 Cd, 06800 Çankaya/Ankara, Türkiye",39.8991472,32.7455191,"[""botanical_garden"", ""park"", ""point_of_interest"", ""establishment""]",4.1,668.0,PRICE_LEVEL_MODERATE
ChIJJxxdIqlH0xQRQSqhn5ZzwIM,Bilkent Plazas,"Üniversiteler, 1597. Cd. Bilkent A3 Plaza No:10 Kat:4 No:38, 06800 Çankaya/Ankara, Türkiye",39.8832864,32.754904499999995,"[""park"", ""point_of_interest"", ""establishment""]",4.4,220.0,PRICE_LEVEL_MODERATE
ChIJtSpQsqVH0xQRhqZI62YS43M,GATA 100th Anniversary Forest,"Üniversiteler, 06800 Çankaya/Ankara, Türkiye",39.8883953,32.7494982,"[""park"", ""point_of_interest"", ""establishment""]",4.2,362.0,PRICE_LEVEL_MODERATE
ChIJ5UP3tT1G0xQRsA4gwhNgBic,Fizik Çimleri,"Üniversiteler, 06800 Çankaya/Ankara, Türkiye",39.8947557,32.783362,"[""park"", ""point_of_interest"", ""establishment""]",4.8,108.0,PRICE_LEVEL_MODERATE
ChIJszXbsoYw0xQRQQWDaSLLjUc,Sincan Hayvanat Bahçesi,"Akşemsettin, Gökhan Sk. No:1, 06934 Sincan/Ankara, Türkiye",39.9740701,32.5873378,"[""park"", ""tourist_attraction"", ""point_of_interest"", ""establishment""]",4.1,4981.0,PRICE_LEVEL_MODERATE
ChIJ99mTUIgw0xQRjBpbAEyER2c,Harikalar Diyarı Giriş 2,"Yunus Emre, 06933 Sincan/Ankara, Türkiye",39.981081,32.5848751,"[""park"", ""point_of_interest"", ""establishment""]",4.2,2683.0,PRICE_LEVEL_MODERATE
ChIJnd2bf-050xQRe_1Clc3vJyA,Butterfly Water Park,"Ahi Mesut, 1904. Cad. 8 B, 06794 Etimesgut/Ankara, Türkiye",39.9370447,32.639185600000005,"[""park"", ""point_of_interest"", ""establishment""]",4.0,2597.0,PRICE_LEVEL_MODERATE
ChIJy_2Fl2s30xQRcazmeqjb8Cw,2. YÜZYIL PARKI,"Kentkoop, Batı Park, 06370 Yenimahalle/Ankara, Türkiye",39.9630491,32.7130194,"[""park"", ""point_of_interest"", ""establishment""]",4.5,738.0,PRICE_LEVEL_MODERATE
ChIJIzN_QRhJ0xQRX8MikrQ_4Do,30 Ağustos Zafer Parkı,"Beştepe Cd. &, Beştepe, 17. Sk., 06560 Yenimahalle/Ankara, Türkiye",39.9215306,32.8061484,"[""park"", ""point_of_interest"", ""establishment""]",4.7,2199.0,PRICE_LEVEL_MODERATE
ChIJVRr01dVI0xQRierwznXvxSc,Atatürk Forest Farm,"Yeni, Emniyet, Cumhurbaşkanlığı Blv No: 6-3, 06560 Yenimahalle/Ankara, Türkiye",39.9365031,32.8044184,"[""park"", ""point_of_interest"", ""establishment""]",4.2,2701.0,PRICE_LEVEL_MODERATE
ChIJM2XW8LpJ0xQRWR0FtUvrkt4,Atatürk Çocukları Doğal Yaşam Parkı,"Gazi, WQXX+22, 06560 Yenimahalle/Ankara, Türkiye",39.94963,32.8001869,"[""park"", ""point_of_interest"", ""establishment""]",4.3,265.0,PRICE_LEVEL_MODERATE
ChIJjTWQhQBP0xQRej8E-sHEDzU,Güvenpark,"Kızılay Meydanı, 06421 Çankaya/Ankara, Türkiye",39.9201797,32.8534066,"[""park"", ""tourist_attraction"", ""point_of_interest"", ""establishment""]",4.1,40067.0,PRICE_LEVEL_MODERATE
ChIJLbRQIfRO0xQRIZZ2_dlkOqk,Gençlik Park,"Doğanbey Mahallesi, Atatürk Blv No:50, 06050 Altındağ/Ankara, Türkiye",39.9370104,32.8497594,"[""park"", ""point_of_interest"", ""establishment""]",4.1,27005.0,PRICE_LEVEL_MODERATE
ChIJRSh_PFBO0xQRgcjsVw-QklY,Independence Park,"Fidanlık, Prof. Dr. Nusret Fişek Cd. No:39, 06420 Çankaya/Ankara, Türkiye",39.9274396,32.864004,"[""park"", ""tourist_attraction"", ""point_of_interest"", ""establishment""]",4.4,14553.0,PRICE_LEVEL_MODERATE
ChIJo2xXeQBP0xQRnniiBHjO1kE,Saraçoğlu Mahallesi,"Namık Kemal, Kumrular Cd. No:7 D:B, 06650 Çankaya/Ankara, Türkiye",39.9192912,32.848851499999995,"[""park"", ""point_of_interest"", ""establishment""]",4.7,714.0,PRICE_LEVEL_MODERATE
ChIJ7dHk9VxO0xQRguJ5A9462zc,Altınköy Open Air Museum - Altındağ,"Beşikkaya, 2022. Sk, 06230 Altındağ/Ankara, Türkiye",39.9729273,32.9553823,"[""tourist_attraction"", ""museum"", ""park"", ""point_of_interest"", ""establishment""]",4.4,13069.0,PRICE_LEVEL_MODERATE
ChIJ2xvBMxVT0xQRR35DFqGzikw,ABB Köroğlu Parkı,"Karapürçek, Karapürçek Cd., 06165 Altındağ/Ankara, Türkiye",39.976538,32.9660249,"[""park"", ""point_of_interest"", ""establishment""]",4.3,1050.0,PRICE_LEVEL_MODERATE
ChIJcalNDG5R0xQRuH4v7qx4H1s,Ayvalı Sera,"Üreğil, 19 Mayıs Blv. No:51, 06270 Mamak/Ankara, Türkiye",39.9129464,32.9559595,"[""florist"", ""botanical_garden"", ""park"", ""farm"", ""market"", ""wholesaler"", ""store"", ""point_of_interest"", ""establishment""]",4.6,424.0,PRICE_LEVEL_MODERATE
ChIJtTiFWQVT0xQRp6BflhrRv_Y,Beşikkaya Parkı,"Beşikkaya, 2015. Cd No:13, 06360 Altındağ/Ankara, Türkiye",39.9727233,32.9520126,"[""park"", ""point_of_interest"", ""establishment""]",4.2,481.0,PRICE_LEVEL_MODERATE
ChIJ1_L2q3JT0xQR3fiYmFmTFdg,Lighthouse Park,"Karapürçek, Deniz Feneri Park İçi Yolu, 06165 Altındağ/Ankara, Türkiye",39.968526,32.9663739,"[""park"", ""point_of_interest"", ""establishment""]",4.0,864.0,PRICE_LEVEL_MODERATE
ChIJT5OZcFpV0xQRdSSgE-DHyM8,Mamak Lavanta Bahçesi,"Gökçeyurt, X24W+F9, 06635 Mamak/Ankara, Türkiye",39.956225,33.0459248,"[""garden"", ""park"", ""point_of_interest"", ""establishment""]",4.4,257.0,PRICE_LEVEL_MODERATE
ChIJ64yS_Xj9gUARq2IEzD9caQE,Kemalpaşa Parkı,"Kemalpaşa, Atatürk Blv., 06780 Elmadağ/Ankara, Türkiye",39.920601000000005,33.222682,"[""park"", ""point_of_interest"", ""establishment""]",4.0,138.0,PRICE_LEVEL_MODERATE
ChIJuzI_EKso0xQRGYqGXdKFsbo,Kayı Köyü Piknik Alanı,"Yenikayı, 06946 Sincan/Ankara, Türkiye",40.0165256,32.4449979,"[""park"", ""point_of_interest"", ""establishment""]",3.3,147.0,PRICE_LEVEL_MODERATE
ChIJGXXYb_7X0hQRIQ7vmjSlFLw,Gendarmerie Memorial Forest,"06710 Ayaş/Ankara, Türkiye",40.0346093,32.3618563,"[""national_park"", ""park"", ""point_of_interest"", ""establishment""]",4.3,680.0,PRICE_LEVEL_MODERATE
ChIJPc3TZHUv0xQRFJLijCay4Nw,Sincan Park,"Çoğlu, 06930 Sincan/Ankara, Türkiye",39.9993881,32.5349323,"[""park"", ""point_of_interest"", ""establishment""]",3.9,516.0,PRICE_LEVEL_MODERATE
ChIJGckgNVgw0xQRTv1i8d3WkKw,Sincan Municipality Park Greenhouse,"Gazi Osmanpaşa, Alcan Sk. No:15, 06932 Sincan/Ankara, Türkiye",39.9979483,32.5806447,"[""botanical_garden"", ""picnic_ground"", ""park"", ""point_of_interest"", ""establishment""]",4.5,3298.0,PRICE_LEVEL_MODERATE
ChIJ8yzeHtYw0xQR6yvaVCFim30,Kemal Sonunur Parkı,"Şeyh Şamil, Sakarya Zaferi Cd. No:8, 06824 Etimesgut/Ankara, Türkiye",39.9962676,32.6212826,"[""park"", ""point_of_interest"", ""establishment""]",4.5,1708.0,PRICE_LEVEL_MODERATE
ChIJ7TQGuHIw0xQR1nqNsQEIqWk,Sera Park Tepe,"İstasyon, 361. Sk. 4 D, 06949 Sincan/Ankara, Türkiye",39.9980802,32.58039360000001,"[""park"", ""point_of_interest"", ""establishment""]",4.5,318.0,PRICE_LEVEL_MODERATE
ChIJVWxxR5hP0xQRWXePcuk_jmk,Harikalar Diyarı Giriş 3,"Yunus Emre, 06933 Sincan Osb/Sincan/Ankara, Türkiye",39.9818856,32.5874847,"[""park"", ""point_of_interest"", ""establishment""]",4.1,147.0,PRICE_LEVEL_MODERATE
ChIJw3OaqSM30xQRfLH7thiK0jk,Göksu Parkı,"Göksu, 06820 Etimesgut/Ankara, Türkiye",39.9934438,32.6541279,"[""park"", ""point_of_interest"", ""establishment""]",4.5,14811.0,PRICE_LEVEL_MODERATE
ChIJJfqYgoVM0xQRBvQjmnL5-XQ,Kartaltepe Picnic Area,"Ovacık, 06280 Keçiören/Ankara, Türkiye",40.0113503,32.8186086,"[""picnic_ground"", ""rest_stop"", ""park"", ""point_of_interest"", ""establishment""]",4.2,2853.0,PRICE_LEVEL_MODERATE
ChIJX7VjWlRN0xQRpNYRn948EHg,Hacıkadın Mesire Alanı,"Şenyuva, Defne Cd. no:37, 06300 Keçiören/Ankara, Türkiye",40.0155817,32.8897418,"[""park"", ""point_of_interest"", ""establishment""]",3.7,1614.0,PRICE_LEVEL_MODERATE
ChIJ7wlqUnNN0xQR6V6itlzUKDI,Gokcek Park,"Bağlarbaşı, Kızlarpınarı Cd. No:132, 06300 Keçiören/Ankara, Türkiye",39.993412,32.8760987,"[""park"", ""tourist_attraction"", ""point_of_interest"", ""establishment""]",4.0,4529.0,PRICE_LEVEL_MODERATE
ChIJjaWsqq5N0xQRpQ1-T36wAi0,Kuşcağız Aile Yaşam Merkezi,"Kuşcağız, Sanatoryum Cd. No:263, 06280 Keçiören/Ankara, Türkiye",40.0050661,32.8542626,"[""sports_complex"", ""gym"", ""park"", ""sports_activity_location"", ""health"", ""point_of_interest"", ""establishment""]",4.0,1211.0,PRICE_LEVEL_MODERATE
ChIJ2TII5flM0xQRwINqpqBReUc,Aşık Veysel Parkı,"Atapark, 1292. Sk. No:2, 06280 Keçiören/Ankara, Türkiye",40.0029359,32.842895,"[""park"", ""tourist_attraction"", ""point_of_interest"", ""establishment""]",4.1,1434.0,PRICE_LEVEL_MODERATE
ChIJp7wGqH5T0xQR_IdKWQqBFG0,Çubuk 1 Barajı Rekreasyon Alanı,"Baraj, 06150 Altındağ/Ankara, Türkiye",40.0032035,32.9265736,"[""park"", ""point_of_interest"", ""establishment""]",4.5,3210.0,PRICE_LEVEL_MODERATE
ChIJ_wSpW5AHgkAR4JhezL4jqtU,Karaköy Mesire Alanı,"Karacaören, 06365 Altındağ/Ankara, Türkiye",40.0309675,32.9447006,"[""hiking_area"", ""sports_activity_location"", ""park"", ""point_of_interest"", ""establishment""]",3.8,164.0,PRICE_LEVEL_MODERATE
ChIJeU7O26AIgkARmw35Xc81XCk,Karakoy Ataturk Forest,"Karaköy Mh., 06145 Pursaklar/Ankara, Türkiye",40.0575951,32.9422779,"[""national_park"", ""park"", ""point_of_interest"", ""establishment""]",4.2,893.0,PRICE_LEVEL_MODERATE
ChIJs5n00bou0xQRpfhG4m9cRVQ,Yeşildere Picnic Area,"Mülk, 3FF6+93, 06630 Sincan/Ankara, Türkiye",40.073221,32.4600705,"[""park"", ""point_of_interest"", ""establishment""]",3.5,1350.0,PRICE_LEVEL_MODERATE
ChIJp_ibvgEt0xQRkNgYpENH5mk,Mülk Göleti,"Mülk, 06946 Sincan/Ankara, Türkiye",40.0843804,32.4860926,"[""park"", ""point_of_interest"", ""establishment""]",3.8,168.0,PRICE_LEVEL_MODERATE
ChIJLyFQ-WgJgkARLBHotiKrN-U,Kösrelik Mesire Alanı,"Kösrelik, 06291 Keçiören/Ankara, Türkiye",40.079379,32.8708271,"[""park"", ""point_of_interest"", ""establishment""]",4.0,458.0,PRICE_LEVEL_MODERATE
ChIJZagq744JgkARjgjPqMOqGJs,Baglum Picnic Area,"Karşıyaka, Bağlar Cd. No:14, 06291 Keçiören/Ankara, Türkiye",40.0615902,32.8385644,"[""park"", ""point_of_interest"", ""establishment""]",4.2,1064.0,PRICE_LEVEL_MODERATE
ChIJG67x0UwPgkARlhlAklI9nYs,European Union Parks,"Saray Osmangazi, 06145 Pursaklar/Ankara, Türkiye",40.0747068,32.9528857,"[""park"", ""tourist_attraction"", ""point_of_interest"", ""establishment""]",4.3,1203.0,PRICE_LEVEL_MODERATE
ChIJwVZuSr8agkARh5kC_6M7iGM,Akyurt Şehitler Anıtı,"Beyazıt, Nurettin Cankurtaran Cd. No:112, 06750 Akyurt/Ankara, Türkiye",40.1245936,33.069388499999995,"[""park"", ""point_of_interest"", ""establishment""]",4.5,169.0,PRICE_LEVEL_MODERATE
ChIJ075hNhgr0xQRXmkdid85hJU,İlhan Deresi Piknik Alanı,"Ortabereket, 06710 Ayaş/Ankara, Türkiye",40.1513961,32.4115019,"[""park"", ""point_of_interest"", ""establishment""]",3.4,267.0,PRICE_LEVEL_MODERATE
ChIJ0_piY1xxgkAR0b8i6v_TWhU,KAZAN KARAVAN VE ÇADIR KAMP ALANI,"Kayı, Saruhan Sokak No:3, 06980 Kahramankazan/Ankara, Türkiye",40.1887842,32.6900363,"[""campground"", ""park"", ""lodging"", ""point_of_interest"", ""establishment""]",4.8,115.0,PRICE_LEVEL_MODERATE
ChIJ5wpm1whzgkARhFDVtrGRSgM,Kılıçlar Köyü Piknik Alanı,"Kılıçlar, 06980 Kahramankazan/Ankara, Türkiye",40.1586022,32.7692633,"[""park"", ""point_of_interest"", ""establishment""]",3.5,249.0,PRICE_LEVEL_MODERATE
ChIJS3P2VUsRgkARmDmLeek7fts,White Garden,"Muhsin Yazıcıoğlu, Demir Sk. No:48, 06760 Çubuk/Ankara, Türkiye",40.1971258,33.0295066,"[""wedding_venue"", ""event_venue"", ""park"", ""point_of_interest"", ""establishment""]",3.9,563.0,PRICE_LEVEL_MODERATE
ChIJ2-di_vIagkARyNTrKVT43hE,Akyurt Dolay Mesire Alanı,"Beyazıt, 06750 Akyurt/Ankara, Türkiye",40.1344534,33.0879471,"[""park"", ""point_of_interest"", ""establishment""]",3.8,182.0,PRICE_LEVEL_MODERATE
ChIJed9envIagkAR-AABmSdMemk,Akyurt Kültür Parkı,"Beyazıt, Nurettin Cankurtaran Cd., 06750 Akyurt/Ankara, Türkiye",40.133302,33.085197,"[""park"", ""point_of_interest"", ""establishment""]",4.4,157.0,PRICE_LEVEL_MODERATE
ChIJRxnE755lgkARJyREafMwf1Y,Kurtboğazı Barajı Mesire Alanı,"Ciğir, 06980 Kazan/Kahramankazan/Ankara, Türkiye",40.2721506,32.6973084,"[""park"", ""point_of_interest"", ""establishment""]",4.2,3206.0,PRICE_LEVEL_MODERATE
ChIJw0bonppsgkAREdrW7rFlklI,DÜŞ YOLCUSU BUNGALOV OTEL VE AT ÇİFTLİĞİ,"Yilmaz Köy Mahallesi 55, Yılmaz köy mah, Yılmazköy, 06760 Çubuk/Ankara, Türkiye",40.24256210000001,32.8762061,"[""hotel"", ""hiking_area"", ""campground"", ""bed_and_breakfast"", ""childrens_camp"", ""camping_cabin"", ""lodging"", ""sports_activity_location"", ""park"", ""tour_agency"", ""travel_agency"", ""restaurant"", ""food"", ""point_of_interest"", ""establishment""]",4.1,391.0,PRICE_LEVEL_MODERATE
ChIJrX5EtaEVgkARlJqWKpOwxB0,ÇUBUKABAD PARKI,"Barbaros, 06760 Çubuk/Ankara, Türkiye",40.2529409,33.0231237,"[""park"", ""point_of_interest"", ""establishment""]",4.5,1003.0,PRICE_LEVEL_MODERATE
ChIJF81xkEGJgkARZN1V_S8Fn64,No9 Camping,"Çeltikçi, öteyüz küme evleri No:9, 06890 Kızılcahamam/Ankara, Türkiye",40.3152833,32.460694,"[""campground"", ""fishing_pond"", ""park"", ""rv_park"", ""lodging"", ""point_of_interest"", ""establishment""]",4.6,616.0,PRICE_LEVEL_MODERATE
ChIJFTVQWkVlgkAR1VrrfALnA2U,KURTBOĞAZI KARAVAN PARKI,"Ciğir, Kurtboğazı Barajı, 06980 Kahramankazan/Ankara, Türkiye",40.2736656,32.6939043,"[""campground"", ""park"", ""lodging"", ""point_of_interest"", ""establishment""]",4.2,209.0,PRICE_LEVEL_MODERATE
ChIJVXcbkuY_gkARM--tDNz0cxg,Çubuk-2 Barajı Mesire Alanı,"Aşağıçavundur, 06760 Çubuk/Ankara, Türkiye",40.282174,33.014979,"[""park"", ""tourist_attraction"", ""point_of_interest"", ""establishment""]",4.1,271.0,PRICE_LEVEL_MODERATE
ChIJ_dFcGmVHgkARMByJ0uqnxZE,Çitköy Alakamp,"Çitköy, Yol ayrımı, 06760 Çubuk/Ankara, Türkiye",40.3431672,33.039632000000005,"[""campground"", ""amusement_center"", ""park"", ""lodging"", ""point_of_interest"", ""establishment""]",4.1,285.0,PRICE_LEVEL_MODERATE
ChIJqeHxK4rY0hQRQ3aNUyyIbsI,Kirazdibi Göleti Sosyal Tesisleri,"Şeyhmuhittin, 06710 Ayaş/Ankara, Türkiye",40.0086154,32.3368212,"[""park"", ""point_of_interest"", ""establishment""]",3.7,198.0,PRICE_LEVEL_MODERATE
ChIJOx13D0XR0hQReE6QzfE_ebg,saklı bahçe restoran ayaş,"İlhanköy, İlhan Köprüsü, 06710 Ayaş/Ankara, Türkiye",40.0976888,32.2516029,"[""restaurant"", ""picnic_ground"", ""food"", ""point_of_interest"", ""establishment""]",3.3,822.0,PRICE_LEVEL_MODERATE
ChIJ_35oN2RlgkARMzjwixm0hek,Urban Forest Picnic Area,"Ciğir, 06980 Kahramankazan/Ankara, Türkiye",40.255109,32.6839854,"[""park"", ""point_of_interest"", ""establishment""]",4.2,160.0,PRICE_LEVEL_MODERATE
ChIJXxbX0NGPgkARHmv0pRU7DjE,Alicin Deresi,"Kuşcuören, 9C7X+FR, 06890 Kızılcahamam/Ankara, Türkiye",40.3637305,32.4495256,"[""park"", ""point_of_interest"", ""establishment""]",3.4,121.0,PRICE_LEVEL_MODERATE
ChIJpy6bTNBEgkARUJwprRlKdFs,Karagöl National Park,"Yeşilkent, 06760 Çubuk/Ankara, Türkiye",40.4107982,32.9123634,"[""tourist_attraction"", ""national_park"", ""hiking_area"", ""park"", ""sports_activity_location"", ""point_of_interest"", ""establishment""]",4.5,5457.0,PRICE_LEVEL_MODERATE
ChIJpy6bTNBEgkARH8PQGZnRq40,Karagöl Picnic Area,"Kışlacık, 06760 Çubuk/Ankara, Türkiye",40.4102736,32.9135274,"[""park"", ""point_of_interest"", ""establishment""]",4.4,1134.0,PRICE_LEVEL_MODERATE
ChIJc-JItILtgkAR_X2BjmBHa5A,Tomb of Sheikh Ali Samarkand,"Körler, 06740 Çamlıdere/Ankara, Türkiye",40.4872648,32.4689862,"[""park"", ""point_of_interest"", ""establishment""]",4.9,2057.0,PRICE_LEVEL_MODERATE
ChIJLfVI3yjygkARaqiWubzuai4,Aluçdagı National Park,"Bardakçılar, Aluçdağ Mesire Yeri, 06740 Çamlıdere/Ankara, Türkiye",40.495103,32.54677300000001,"[""tourist_attraction"", ""national_park"", ""park"", ""point_of_interest"", ""establishment""]",4.3,2676.0,PRICE_LEVEL_MODERATE
ChIJ1zZL5TjygkAR8YfPMMf4-38,Çamlıdere Yaylası Göleti,"Kayabaşı, Melih Gökçek Cd. No:68, 06740 Çamlıdere/Ankara, Türkiye",40.487843000000005,32.5284682,"[""national_park"", ""park"", ""point_of_interest"", ""establishment""]",4.4,266.0,PRICE_LEVEL_MODERATE
ChIJr_4GMAj3gkARFl_aqGVuL8c,Kızılcahamam Millet Bahçesi,"Akçay, 06890 Kızılcahamam/Ankara, Türkiye",40.4768725,32.656895899999995,"[""park"", ""point_of_interest"", ""establishment""]",4.7,261.0,PRICE_LEVEL_MODERATE
ChIJASmPz5r2gkARkmfI1OFwWSI,Kizilcahamam City Forest,"Yenice, Kızılcahamam Kent Ormanı Yolu, 06890 Kızılcahamam/Ankara, Türkiye",40.4757256,32.6449961,"[""national_park"", ""park"", ""point_of_interest"", ""establishment""]",4.5,195.0,PRICE_LEVEL_MODERATE
ChIJk4CluLZRgkAR_XbC8lBnhIQ,Ay Kayası Mesire Alanı,"Kızılören, 06760 Çubuk/Ankara, Türkiye",40.4853025,32.9588364,"[""tourist_attraction"", ""park"", ""point_of_interest"", ""establishment""]",4.4,441.0,PRICE_LEVEL_MODERATE
ChIJ-8ykLlzvgkARKNlELC671kE,Çamkoru kamp Park,"Alakoç, Avdan, 06740 Çamlıdere/Ankara, Türkiye",40.5781424,32.497058,"[""national_park"", ""hiking_area"", ""campground"", ""picnic_ground"", ""rv_park"", ""lodging"", ""sports_activity_location"", ""park"", ""point_of_interest"", ""establishment""]",4.3,1766.0,PRICE_LEVEL_MODERATE
ChIJrYDoz7jngkARe7YiYr2MM50,Şahinler Tabiat Parkı,"Berçinyayalar, Ankara Bolu Yolu, 06890 Kızılcahamam/Ankara, Türkiye",40.624517,32.4453825,"[""national_park"", ""tourist_attraction"", ""park"", ""point_of_interest"", ""establishment""]",4.2,1349.0,PRICE_LEVEL_MODERATE
ChIJx8pmjZXngkARwppGqDYKTGA,Sahinler Milli Parki,"Berçinyayalar, 06890 Kızılcahamam/Ankara, Türkiye",40.6285784,32.4408175,"[""campground"", ""lodging"", ""park"", ""point_of_interest"", ""establishment""]",4.3,449.0,PRICE_LEVEL_MODERATE
ChIJjw5MMFzvgkAR-tF265X3bpI,Gençlik Kampı,"Avdan, 06740 Çamlıdere/Ankara, Türkiye",40.58118,32.5045699,"[""campground"", ""lodging"", ""park"", ""point_of_interest"", ""establishment""]",4.2,118.0,PRICE_LEVEL_MODERATE
ChIJn1WR4nJG0xQR8DjtYGRouxA,Can Yücel Parkı,"Çiğdem, 06530 Çankaya/Ankara, Türkiye",39.8815008,32.7997595,"[""park"", ""tourist_attraction"", ""point_of_interest"", ""establishment""]",4.5,267.0,PRICE_LEVEL_MODERATE
ChIJfeSEx41F0xQR_kuNE_9UMRc,Çankaya Belediyesi Ahmed Arif Parkı,"Harbiye, Sokullu Mehmet Paşa Cd. No:101, 06460 Çankaya/Ankara, Türkiye",39.8833232,32.835439099999995,"[""park"", ""point_of_interest"", ""establishment""]",4.3,1017.0,PRICE_LEVEL_MODERATE
ChIJm9XN3ZNF0xQR-WKi9iPshbE,CeSuR E-Spor,"Aydınlar, Sokullu Mehmet Paşa Cd. No: 121/a, 06460 Çankaya/Ankara, Türkiye",39.8806463,32.8351682,"[""amusement_center"", ""video_arcade"", ""playground"", ""cafe"", ""electronics_store"", ""store"", ""food"", ""point_of_interest"", ""establishment""]",4.2,363.0,PRICE_LEVEL_MODERATE
ChIJxUmQ-3hF0xQRsFkNvBHpiWk,Mexico Park,"Yıldızevler, 745/5. Sk. No:5, 06550 Çankaya/Ankara, Türkiye",39.8775459,32.8560973,"[""park"", ""point_of_interest"", ""establishment""]",4.2,109.0,PRICE_LEVEL_MODERATE
ChIJtVSLTX5F0xQRYgarzP9WzNE,Constitution Park,"Yıldızevler, Simon Bolivar Blv No:12, 06550 Çankaya/Ankara, Türkiye",39.8824442,32.8561702,"[""park"", ""point_of_interest"", ""establishment""]",3.9,107.0,PRICE_LEVEL_MODERATE
ChIJk5Mt2AdG0xQRVyH5EUUQtZ4,Birlik parkı,"İşçi Blokları, 1481. Sk. No:6, 06530 Çankaya/Ankara, Türkiye",39.8911646,32.8065432,"[""park"", ""point_of_interest"", ""establishment""]",4.3,479.0,PRICE_LEVEL_MODERATE
ChIJMy8XRfVF0xQRjYCBjF-1SNE,Öveçler Vadisi,"Öveçler, 1335. Sk., 06460 Çankaya/Ankara, Türkiye",39.8891691,32.831112399999995,"[""park"", ""hiking_area"", ""sports_activity_location"", ""point_of_interest"", ""establishment""]",4.2,504.0,PRICE_LEVEL_MODERATE
ChIJv1UE5oZF0xQRWM_oERzAL8o,Valley Park,"İlkadım, Vadim Sk. No:29, 06450 Çankaya/Ankara, Türkiye",39.885385,32.8459799,"[""park"", ""tourist_attraction"", ""point_of_interest"", ""establishment""]",4.5,997.0,PRICE_LEVEL_MODERATE
ChIJxWi_e4FP0xQRJ4Y2_tyjx_k,Botanical Park,"Çankaya, Çankaya Cd. No:10/B, 06680 Çankaya/Ankara, Türkiye",39.88760690000001,32.8560141,"[""park"", ""tourist_attraction"", ""point_of_interest"", ""establishment""]",4.6,9178.0,PRICE_LEVEL_MODERATE
ChIJORITk39P0xQRATikPnV1jZ4,Orange Blossom Park,"Aziziye, Portakal Çiçeği Park İçi Yolu No:22, 06690 Çankaya/Ankara, Türkiye",39.8868964,32.8525181,"[""park"", ""tourist_attraction"", ""point_of_interest"", ""establishment""]",4.7,2351.0,PRICE_LEVEL_MODERATE
ChIJIThLKvNP0xQRDJGIvCzHDto,9 Eylül Parkı,"Birlik, 435. Cd., 06610 Çankaya/Ankara, Türkiye",39.884636,32.876379,"[""park"", ""point_of_interest"", ""establishment""]",4.0,138.0,PRICE_LEVEL_MODERATE
ChIJzXwiY-VP0xQRSbOJ4edgc_M,Simkent Parkı,"Kırkkonaklar, 316. Cd. No:14, 06610 Çankaya/Ankara, Türkiye",39.8857596,32.8870368,"[""park"", ""point_of_interest"", ""establishment""]",4.0,130.0,PRICE_LEVEL_MODERATE
ChIJU5rayuVP0xQRgIsGgFjwO-A,Doğu Parkı,"Kırkkonaklar, 346. Sk., 06610 Çankaya/Ankara, Türkiye",39.8874627,32.8918265,"[""park"", ""point_of_interest"", ""establishment""]",4.2,123.0,PRICE_LEVEL_MODERATE
ChIJZalVKx1G0xQR4yK0or0EwCQ,Uğur Mumcu Parkı,"Çukurambar, Öğretmenler Cd., 06510 Çankaya/Ankara, Türkiye",39.9013852,32.7975502,"[""park"", ""botanical_garden"", ""tourist_attraction"", ""point_of_interest"", ""establishment""]",4.5,1201.0,PRICE_LEVEL_MODERATE
ChIJkUGgkQBG0xQRaNvd90T6Ifw,Erguvan Parkı,"Çukurambar, 1464. Sk., 06510 Çankaya/Ankara, Türkiye",39.8967381,32.8074865,"[""park"", ""point_of_interest"", ""establishment""]",4.3,206.0,PRICE_LEVEL_MODERATE
ChIJ8bEk4KxP0xQRtQVdpGCxY50,EDOK kır gazinosu,"Oğuzlar, Türkocağı Cd. No:72, 06520 Çankaya/Ankara, Türkiye",39.8970583,32.8225842,"[""garden"", ""park"", ""point_of_interest"", ""establishment""]",4.5,449.0,PRICE_LEVEL_MODERATE
ChIJOeTTb31P0xQRW2nejVG8vwU,Dikmen Valley,"Ayrancı, 06540 Çankaya/Ankara, Türkiye",39.8963104,32.8442529,"[""park"", ""point_of_interest"", ""establishment""]",4.5,9488.0,PRICE_LEVEL_MODERATE
ChIJT7AhDqJP0xQRfUIL_yqAcTM,Kuğulu Park,"Çankaya Kuğulu, Çankaya, Park, 06690 Çankaya/Ankara, Türkiye",39.9020001,32.8601762,"[""park"", ""tourist_attraction"", ""point_of_interest"", ""establishment""]",4.5,24898.0,PRICE_LEVEL_MODERATE
ChIJN26nO5pP0xQRllqZX2CDKaU,Seğmenler Parkı,"Çankaya, 06680 Çankaya/Ankara, Türkiye",39.8948346,32.862981999999995,"[""park"", ""tourist_attraction"", ""point_of_interest"", ""establishment""]",4.4,13248.0,PRICE_LEVEL_MODERATE
ChIJd9TPZltP0xQRYHhB4YptUpM,Çankaya Belediyesi Bademlidere Cumhuriyet Parkı,"Kırkkonaklar Mahallesi 358. Sokak, ve, Bademlidere, 223. Sk., 06670 Çankaya/Ankara, Türkiye",39.8957422,32.8901883,"[""park"", ""point_of_interest"", ""establishment""]",3.5,126.0,PRICE_LEVEL_MODERATE
ChIJ57I7QghR0xQRsr1Sc90Dcss,Ege Millet Bahçesi,"Ege, 06270 Mamak/Ankara, Türkiye",39.9030499,32.912372999999995,"[""garden"", ""park"", ""point_of_interest"", ""establishment""]",4.2,351.0,PRICE_LEVEL_MODERATE
ChIJZ8YKmF9R0xQR7W_3PbmcBKs,LaBiGel Cafe,"İnci Yaka Konutları, Cengizhan, Sultan Fatih Cd. 18/Z, 06480 Mamak/Ankara, Türkiye",39.8943138,32.9271278,"[""restaurant"", ""playground"", ""cafe"", ""point_of_interest"", ""food"", ""establishment""]",3.6,1024.0,PRICE_LEVEL_MODERATE
ChIJiQNrJ69R0xQRUHYweo77Rcw,Democracy Park,"Akşemsettin, 987. Sk., 06480 Mamak/Ankara, Türkiye",39.9031252,32.937219299999995,"[""park"", ""tourist_attraction"", ""point_of_interest"", ""establishment""]",4.1,738.0,PRICE_LEVEL_MODERATE
ChIJ2VUjf3M40xQRV4Gq5cATktU,AOÇ Zırhlı Birlikler Okulu Hatıra Ormanı,"Erler, Etimesgut Yolu, 06790 Etimesgut/Ankara, Türkiye",39.909312,32.712204,"[""national_park"", ""park"", ""point_of_interest"", ""establishment""]",4.1,481.0,PRICE_LEVEL_MODERATE
ChIJmVBeKx1G0xQRwKbIP3hsaOE,Çansera Kent Bahçesi,"Çukurambar, 06510 Çankaya/Ankara, Türkiye",39.9042619,32.7933849,"[""park"", ""tourist_attraction"", ""point_of_interest"", ""establishment""]",4.4,6472.0,PRICE_LEVEL_MODERATE
ChIJyeziDXNP0xQRl324H5013KE,Cemal Süreya Parkı,"Ayrancı, Elçi Sokağı No:28, 06540 Çankaya/Ankara, Türkiye",39.9034965,32.8459971,"[""park"", ""point_of_interest"", ""establishment""]",4.3,912.0,PRICE_LEVEL_MODERATE
ChIJa9gd5MhP0xQRkuj69ZnVWTg,Lovers Park,"Aşıkpaşa, 218. Sk. No:9, 06670 Çankaya/Ankara, Türkiye",39.9060031,32.8794998,"[""park"", ""tourist_attraction"", ""point_of_interest"", ""establishment""]",3.8,219.0,PRICE_LEVEL_MODERATE
ChIJyyOSCC1O0xQRlg9djLDRVm4,Cumhuriyet Parki,"Merkez, Mamak Merkez, Mamak, Ankara, Türközü, 342. Cd. 81 B, 06630 Mamak/Ankara, Türkiye",39.912645,32.889453,"[""park"", ""point_of_interest"", ""establishment""]",4.0,716.0,PRICE_LEVEL_MODERATE
ChIJHcobZM1P0xQR2NiG8PRx00w,Ottoman Park,"Çankaya, Ziya Oralay Cd. No:14, 06670 Mamak/Ankara, Türkiye",39.9106283,32.8865358,"[""park"", ""tourist_attraction"", ""point_of_interest"", ""establishment""]",4.1,194.0,PRICE_LEVEL_MODERATE
ChIJK_qwLtJR0xQRL5Hxd9nNkco,Kırım-sudak Kardeşlik Parkı,"Mutlu, 713. Sk., 06630 Mamak/Ankara, Türkiye",39.909054,32.907545,"[""park"", ""point_of_interest"", ""establishment""]",3.9,304.0,PRICE_LEVEL_MODERATE
ChIJ3WpO99ZR0xQRqUF-MJ_IlE8,Şahin Parkı,"Kutlu, Mutlu Cd. 60 A, 06630 Mamak/Ankara, Türkiye",39.9128714,32.9017427,"[""park"", ""point_of_interest"", ""establishment""]",3.7,124.0,PRICE_LEVEL_MODERATE
ChIJhdRMus1R0xQRG2yTqKn7djg,Clock Tower,"General Zeki Doğan, 723. Sk. No:47, 06630 Mamak/Ankara, Türkiye",39.9064502,32.9118925,"[""park"", ""point_of_interest"", ""establishment""]",4.1,487.0,PRICE_LEVEL_MODERATE
ChIJpRDdzwhR0xQRVTPO7F819YY,Ege Mutlu Cumhuriyet Parkı,"Ege, 744. Sk No:1, 06270 Mamak/Ankara, Türkiye",39.9043634,32.9146545,"[""park"", ""sports_complex"", ""sports_activity_location"", ""point_of_interest"", ""establishment""]",4.4,351.0,PRICE_LEVEL_MODERATE
ChIJbU3rQs5R0xQRCG9Lf5YXAfc,General Zeki Doğan Mahallesi Koşuyolu Parkı,"General Zeki Doğan, 557. Sk. No:10, 06630 Mamak/Ankara, Türkiye",39.909186,32.911961,"[""park"", ""point_of_interest"", ""establishment""]",3.9,107.0,PRICE_LEVEL_MODERATE
ChIJm_ZKzbdR0xQRW2wOytDrr34,Fahri Korutürk Parkı,"Fahri Korutürk, Ozan Rehberi Cd. No:29, 06480 Mamak/Ankara, Türkiye",39.9074464,32.9224134,"[""park"", ""point_of_interest"", ""establishment""]",3.8,164.0,PRICE_LEVEL_MODERATE
ChIJ0RZ47AtR0xQRQyQ-zDXSiw4,Üreğil Millet Bahçesi,"Üreğil, 1152. Sk. No:76, 06270 Mamak/Ankara, Türkiye",39.9093695,32.9429802,"[""park"", ""point_of_interest"", ""establishment""]",4.3,2000.0,PRICE_LEVEL_MODERATE
ChIJCbd1jJtI0xQRFcR55tZYDis,AOÇ Havelsan Mehmetçik Ormanı,"Mustafa Kemal, Şht. Öğretmen Şenay Aybüke Yalçın Cd., 06510 Çankaya/Ankara, Türkiye",39.9141499,32.7787623,"[""national_park"", ""park"", ""point_of_interest"", ""establishment""]",4.3,110.0,PRICE_LEVEL_MODERATE
ChIJKfGWGxlP0xQRoa58Ear8Oxk,Anıt Park,"Bahçelievler, Mareşal Fevzi Çakmak Cd. No:32, 06490 Çankaya/Ankara, Türkiye",39.921454,32.834444,"[""park"", ""point_of_interest"", ""establishment""]",4.5,2263.0,PRICE_LEVEL_MODERATE
ChIJLXLC5BdP0xQROQdPyD-SsUg,Eser Park,"Yukarı Bahçelievler, 78. Sk. No:42, 06490 Çankaya/Ankara, Türkiye",39.9190954,32.8314116,"[""park"", ""point_of_interest"", ""establishment""]",4.3,1096.0,PRICE_LEVEL_MODERATE
ChIJFUAgwD1P0xQRzhsHeoL4pnQ,Adnan Ötüken Parkı,"Yukarı Bahçelievler, İnönü Sk. 22 B D:22 B, 06490 Çankaya/Ankara, Türkiye",39.9167251,32.8292523,"[""park"", ""point_of_interest"", ""establishment""]",4.3,394.0,PRICE_LEVEL_MODERATE
ChIJy8Pb77JP0xQR5SwAVwZnDmk,Ozan Ayaz Parkı,"Seyranbağları, 06660 Çankaya/Ankara, Türkiye",39.9162254,32.8668602,"[""park"", ""dog_park"", ""rest_stop"", ""amusement_center"", ""hiking_area"", ""sports_activity_location"", ""point_of_interest"", ""establishment""]",4.2,128.0,PRICE_LEVEL_MODERATE
ChIJ9_4Rby9O0xQRXS9lJIbNqJg,Muhsin Yazıcıoğlu Parkı,"Peyami Safa, Mehmet Ali Altın Cd, 06630 Mamak/Ankara, Türkiye",39.918524,32.891151,"[""park"", ""tourist_attraction"", ""point_of_interest"", ""establishment""]",4.1,674.0,PRICE_LEVEL_MODERATE
ChIJISnIYsNR0xQR2BcdF27UHyM,Hacı Bektaş Veli Parkı,"Şahintepe, 650. Sk. No:1, 06470 Mamak/Ankara, Türkiye",39.917200300000005,32.9120997,"[""park"", ""point_of_interest"", ""establishment""]",4.2,597.0,PRICE_LEVEL_MODERATE
ChIJJfD88shR0xQRicZUwzkqcSE,Mamak Belediyesi Nato Yolu Koşu Ve Dinlenme Alanı,"General Zeki Doğan, Natoyolu Caddesı No:80, 06630 Mamak/Ankara, Türkiye",39.9098231,32.9174619,"[""park"", ""point_of_interest"", ""establishment""]",3.6,122.0,PRICE_LEVEL_MODERATE
ChIJ63AaYpdR0xQRB6bR51y8UQU,Boğaziçi Şelalesi,"Boğaziçi, 1062. Sk. No:7, 06480 Mamak/Ankara, Türkiye",39.918364,32.9324389,"[""park"", ""point_of_interest"", ""establishment""]",3.8,172.0,PRICE_LEVEL_MODERATE
ChIJ_UJiz59R0xQR4xM33x2ODk8,Mamak Belediyesi Kent Ormanı Rekreasyon Alanı,"Üreğil, 1152. Sk. No:76, 06270 Mamak/Ankara, Türkiye",39.9128734,32.9424676,"[""park"", ""point_of_interest"", ""establishment""]",4.4,1208.0,PRICE_LEVEL_MODERATE
ChIJ6WDUPv1O0xQRVreonyPlwQs,Ördekli Park,"Maltepe, Süleymanbey Sk. No:8, 06570 Çankaya/Ankara, Türkiye",39.9264923,32.8433654,"[""park"", ""botanical_garden"", ""point_of_interest"", ""establishment""]",4.3,802.0,PRICE_LEVEL_MODERATE
ChIJVWusTFZO0xQRzGNT5n2ZcoM,Sıhhiye Metro Abdi İpekçi Parkı Girişi,"Sağlık, 06420 Çankaya/Ankara, Türkiye",39.9281113,32.8556556,"[""park"", ""point_of_interest"", ""establishment""]",4.1,427.0,PRICE_LEVEL_MODERATE
ChIJRaSQGDhO0xQRUYK-aZIRU4Y,50th Year Park,"50. Yıl, 104. Sk. No:1, 06590 Çankaya/Ankara, Türkiye",39.923826700000006,32.876334,"[""park"", ""tourist_attraction"", ""point_of_interest"", ""establishment""]",4.5,6790.0,PRICE_LEVEL_MODERATE
ChIJEUB5vj1O0xQRbg214W4Cmbs,Munzeviler Parki,"Ertuğrulgazi, Münzeviler Cd. No:8, 06590 Çankaya/Ankara, Türkiye",39.9285518,32.8827571,"[""park"", ""point_of_interest"", ""establishment""]",4.3,772.0,PRICE_LEVEL_MODERATE
ChIJv4sDNiBO0xQR0tYbU6ETpJE,Aşık Veysel Parkı,"Aşık Veysel, Bağlarbaşı Cd., 06620 Mamak/Ankara, Türkiye",39.9255998,32.896284699999995,"[""national_park"", ""park"", ""point_of_interest"", ""establishment""]",3.9,869.0,PRICE_LEVEL_MODERATE
ChIJYZsfVuBR0xQRwehpGUpLHM8,Kartaltepe Park,"Kartaltepe, 314/6. Sk. No:23 D:A, 06620 Mamak/Ankara, Türkiye",39.92704,32.901489999999995,"[""park"", ""tourist_attraction"", ""point_of_interest"", ""establishment""]",4.2,1433.0,PRICE_LEVEL_MODERATE
ChIJ7WcRkZtR0xQRa6BHMlpZWxw,Mamak Macera Parkı,"Kartaltepe, 06620 Mamak/Ankara, Türkiye",39.9278573,32.8987862,"[""park"", ""point_of_interest"", ""establishment""]",3.9,317.0,PRICE_LEVEL_MODERATE
ChIJvTPc08JR0xQRIqcazyw5J2A,Sahintepe Parki,"Tuzluçayır, 642. Sk. No:4, 06620 Mamak/Ankara, Türkiye",39.9206961,32.9105709,"[""park"", ""point_of_interest"", ""establishment""]",3.6,150.0,PRICE_LEVEL_MODERATE
ChIJLa0B0NFO0xQRmzCeZ-CIaHQ,Gazi Park,"Emniyet, Çarşı Yolu Sk. No:2, 06560 Yenimahalle/Ankara, Türkiye",39.9385531,32.7951889,"[""park"", ""point_of_interest"", ""establishment""]",4.5,790.0,PRICE_LEVEL_MODERATE
ChIJB2fZO9hI0xQRAofnCzytLU0,Gazi Park Belpa Kafe Restorant,"Bahçekapı, Çiftlik Cd., 06797 Etimesgut/Ankara, Türkiye",39.9371256,32.792336000000006,"[""park"", ""tourist_attraction"", ""point_of_interest"", ""establishment""]",4.5,4699.0,PRICE_LEVEL_MODERATE
ChIJ4y5-59lI0xQRd-sfu6v6n9w,AOC Ornament And Agronomy Showroom,"Emniyet Mahallesi Yeni Çiftlik Caddesi No: 6-3 Yenimahalle, Bahçekapı, 06990 Etimesgut/Ankara, Türkiye",39.9368444,32.796225199999995,"[""park"", ""point_of_interest"", ""establishment""]",4.3,527.0,PRICE_LEVEL_MODERATE
ChIJ6xO0WfZO0xQRtArMz24TuRA,Gençlik Parkı,"Doğanbey Mahallesi, Talatpaşa Blv No:38, 06050 Altındağ/Ankara, Türkiye",39.9349375,32.8509495,"[""park"", ""point_of_interest"", ""establishment""]",4.2,1183.0,PRICE_LEVEL_MODERATE
ChIJa9y9OklP0xQRJD7s2UizaWU,Hamamönü Saat Kulesi,"Hacettepe, Sarıkadı Sk., 06230 Altındağ/Ankara, Türkiye",39.9331666,32.8662037,"[""park"", ""point_of_interest"", ""establishment""]",4.4,393.0,PRICE_LEVEL_MODERATE
ChIJbyCX-xpO0xQR2rj3kQTYN_c,Şafaktepe Park,"Şafaktepe, Mamak Cd., 06260 Mamak/Ankara, Türkiye",39.9361453,32.8892901,"[""national_park"", ""park"", ""point_of_interest"", ""establishment""]",4.2,1887.0,PRICE_LEVEL_MODERATE
ChIJF9MpaxpO0xQRZVoH1VZaz_Y,Sehitlik Parki,"Merkez, Mamak Merkez, Mamak, Ankara, Balkiraz, 06620 Mamak/Ankara, Türkiye",39.934964,32.888638,"[""park"", ""point_of_interest"", ""establishment""]",4.5,108.0,PRICE_LEVEL_MODERATE
ChIJuX7HQ-NR0xQRCdQ6qctWWJQ,Şelale Cafe & Bistro,"Mehtap, 281. Sk. No:28, 06470 Mamak/Ankara, Türkiye",39.9329461,32.9028451,"[""cafe"", ""wedding_venue"", ""event_venue"", ""playground"", ""point_of_interest"", ""food"", ""establishment""]",3.9,1000.0,PRICE_LEVEL_MODERATE
ChIJ58ZLWeNR0xQR-h6A_4hwxzE,Mamak Falls,"Çağlayan, Mamak Cd. No:118, 06470 Mamak/Ankara, Türkiye",39.932635,32.9040389,"[""park"", ""point_of_interest"", ""establishment""]",3.9,174.0,PRICE_LEVEL_MODERATE
ChIJ0QJLNx1O0xQRRmGrlMi3qmE,Mamak Municipality Saimekadın Park,"Şafaktepe, Mamak Cd., 06340 Mamak/Ankara, Türkiye",39.9350463,32.8972751,"[""park"", ""point_of_interest"", ""establishment""]",3.9,275.0,PRICE_LEVEL_MODERATE
ChIJr-OfcgBJ0xQR7YHhunio6Pk,Atatürk Orman Çiftliği Doğal Yaşam Parkı,"Gazi, WQXV+69, 06560 Yenimahalle/Ankara, Türkiye",39.9481174,32.79346220000001,"[""park"", ""point_of_interest"", ""establishment""]",3.4,137.0,PRICE_LEVEL_MODERATE
ChIJt-f1HCNJ0xQRDiG6VdnZC6E,Çamlıca Parkı,"Çamlıca, 128. Sk. No:2, 06200 Yenimahalle/Ankara, Türkiye",39.9500455,32.7891113,"[""park"", ""point_of_interest"", ""establishment""]",4.1,128.0,PRICE_LEVEL_MODERATE
ChIJn2OCIx9J0xQR5tMmfMWhv0Y,Ali's Garden Kır Bahçesi ve Düğün Salonları,"Çamlıca Mahallesi Fatih Sultan Mehmet Blv No:208, İstanbul Yolu 7. KM Macit Petrol Halı Saha Arkası, Çamlıca, 06200 Yenimahalle/Ankara, Türkiye",39.94787,32.783583,"[""wedding_venue"", ""event_venue"", ""garden"", ""park"", ""point_of_interest"", ""store"", ""establishment""]",3.6,149.0,PRICE_LEVEL_MODERATE
ChIJ84cNvWNP0xQRhGf-RyOAI1U,Başkent Millet Bahçesi,"Ankara, Zübeyde Hanım, 06070 Altındağ/Ankara, Türkiye",39.9448131,32.8377923,"[""park"", ""point_of_interest"", ""establishment""]",4.2,4184.0,PRICE_LEVEL_MODERATE
ChIJ7SWwMpNO0xQRsHKUQg9ixT0,Ataturk Cultural Center,"Zübeyde Hanım, Kazım Karabekir Cad., 06070 Altındağ/Ankara, Türkiye",39.9435535,32.8405114,"[""cultural_center"", ""park"", ""point_of_interest"", ""establishment""]",4.4,1572.0,PRICE_LEVEL_MODERATE
ChIJTzpHbQBS0xQRVcg7SuF2oJQ,60 Homes Park,"Bahçelerüstü, 06350 Mamak/Ankara, Türkiye",39.945498,32.8998488,"[""park"", ""point_of_interest"", ""establishment""]",3.3,159.0,PRICE_LEVEL_MODERATE
ChIJNwrbriNS0xQRwVAzre8Sb4w,Kolordu Sehitleri Parki,"Merkez, Mamak Merkez, Mamak, Ankara, Karaağaç, 06260 Mamak/Ankara, Türkiye",39.942126,32.9244807,"[""park"", ""point_of_interest"", ""establishment""]",4.1,110.0,PRICE_LEVEL_MODERATE
ChIJLTWsHdo30xQRLRgJjG2KQNs,Asaf Bey Park,"Ergazi, Özdamla Sitesi No:9, 06370 Ostim Organize Sanayi Bölgesi/Yenimahalle/Ankara, Türkiye",39.9568246,32.7124869,"[""park"", ""point_of_interest"", ""establishment""]",4.5,177.0,PRICE_LEVEL_MODERATE
ChIJScFOqClI0xQRlGkFahPgGlE,Ismail Hakkı Tonguç Parkı,"İnönü, Batıkent Blv., 06370 Yenimahalle/Ankara, Türkiye",39.957575,32.7208464,"[""park"", ""point_of_interest"", ""establishment""]",4.3,545.0,PRICE_LEVEL_MODERATE
ChIJBfsiCjVI0xQR_QTjkdfT2qU,Haydar Aliyev Parkı,"Uğur Mumcu, 1626. Sk. No:70, 06370 Yenimahalle/Ankara, Türkiye",39.9565318,32.7389602,"[""park"", ""tourist_attraction"", ""point_of_interest"", ""establishment""]",4.7,3260.0,PRICE_LEVEL_MODERATE
ChIJb9GBBktI0xQR2bxRuEytIY8,Uğur Mumcu Country Park,"Uğur Mumcu, 1673. Sk. No:7, 06370 Yenimahalle/Ankara, Türkiye",39.9546806,32.744215,"[""park"", ""point_of_interest"", ""establishment""]",4.4,131.0,PRICE_LEVEL_MODERATE
ChIJP3-iChVJ0xQR2rYTdWT0hiE,Cemre Park,"Demet Mh, Bağdat Cd., 06200 Yenimahalle/Ankara, Türkiye",39.9601859,32.7843278,"[""park"", ""tourist_attraction"", ""point_of_interest"", ""establishment""]",4.0,3303.0,PRICE_LEVEL_MODERATE
ChIJC--jTjhJ0xQRTfnmDVNJb-Q,Ahmet Ayık Park,"25 Mart, Çınardibi Cd. 4 B, 06200 Yenimahalle/Ankara, Türkiye",39.956843,32.7953318,"[""park"", ""point_of_interest"", ""establishment""]",4.3,277.0,PRICE_LEVEL_MODERATE
ChIJ2axv_jhJ0xQRZOiv9BrQwHY,Children of the World Peace Park,"25 Mart, Çınardibi Cd. 4 A, 06200 Yenimahalle/Ankara, Türkiye",39.9572288,32.7935661,"[""park"", ""point_of_interest"", ""establishment""]",4.1,266.0,PRICE_LEVEL_MODERATE
ChIJqUGU5HhO0xQRxmQ54dvrCOY,Tongaç Parkı,"Örnek, Şht. Ömer Halisdemir Blv No:20, 06110 Altındağ/Ankara, Türkiye",39.9543234,32.861196,"[""park"", ""point_of_interest"", ""establishment""]",3.8,385.0,PRICE_LEVEL_MODERATE
ChIJJ1Gax-dN0xQR-55eF1u5Bzo,Celal Atik Park,"Ahiler, Çağdaş Sk. No:90, 06130 Altındağ/Ankara, Türkiye",39.9590378,32.8781852,"[""park"", ""point_of_interest"", ""establishment""]",3.8,192.0,PRICE_LEVEL_MODERATE
ChIJl0TVz-BN0xQRq0pAwiaITTc,Örnek Parkı,"Örnek, Örnek Park İçi Yolu, 06090 Altındağ/Ankara, Türkiye",39.955055,32.878242,"[""park"", ""point_of_interest"", ""establishment""]",3.6,107.0,PRICE_LEVEL_MODERATE
ChIJIU32ktxN0xQRyODZs0KoAxM,Hasan Esat Işık Park,"Aydınlıkevler, Cephe Sk. No:10, 06130 Altındağ/Ankara, Türkiye",39.9605183,32.871688299999995,"[""park"", ""point_of_interest"", ""establishment""]",3.9,133.0,PRICE_LEVEL_MODERATE
ChIJRx4QC-9N0xQRsX8LBgT8_ns,Nasuh Akar Park,"Aydınlıkevler, Çevreli Cd. No:9, 06130 Altındağ/Ankara, Türkiye",39.9593351,32.8844407,"[""park"", ""point_of_interest"", ""establishment""]",4.0,165.0,PRICE_LEVEL_MODERATE
ChIJZw4fl8g30xQRBVtIAheRj_c,Emek Pazar Sitesi,"Batı Sitesi, Emek Pazar Sitesi Sk. Emek Pazar Sitesi 7-11 D:23/C, 06370 Yenimahalle/Ankara, Türkiye",39.9624528,32.6994301,"[""park"", ""point_of_interest"", ""establishment""]",3.9,194.0,PRICE_LEVEL_MODERATE
ChIJa1SuVQA30xQRoIqbRO_n93I,Batıkent Rekreasyon Alanı Süs Havuzu,"Ankara, Kentkoop, 06370 Yenimahalle/Ankara, Türkiye",39.9640861,32.7112788,"[""garden"", ""park"", ""point_of_interest"", ""establishment""]",4.5,123.0,PRICE_LEVEL_MODERATE
ChIJqXsqZ8xJ0xQRJLg-qwXZzHg,Vedat Dalokay Park,"Uğur Mumcu, 1609. Sk., 06370 Yenimahalle/Ankara, Türkiye",39.962396,32.7340312,"[""park"", ""tourist_attraction"", ""point_of_interest"", ""establishment""]",4.3,1411.0,PRICE_LEVEL_MODERATE
ChIJcf5l0tZJ0xQR4qmFeO1FGKY,Ali Dinçer Parkı,"Kentkoop, 1853. Sk., 06370 Yenimahalle/Ankara, Türkiye",39.9695449,32.723565,"[""park"", ""point_of_interest"", ""establishment""]",4.5,567.0,PRICE_LEVEL_MODERATE
ChIJpSJz5M1J0xQRHcx2ocKweH4,Friendship Park,"Kentkoop, Harb-İş-5 Konut Sitesi 1-14, 06370 Yenimahalle/Ankara, Türkiye",39.9650671,32.7304624,"[""park"", ""point_of_interest"", ""establishment""]",4.0,213.0,PRICE_LEVEL_MODERATE
ChIJnZrFug5J0xQRFrVx9o4f9p4,joyport Entertainment Center,"Podium Mall Ankara, Mehmet Akif Ersoy, Bağdat Cd. 60B D:206 D:2. Kat, 06200 Yenimahalle/Ankara, Türkiye",39.961732,32.770548,"[""amusement_center"", ""bowling_alley"", ""playground"", ""movie_theater"", ""sports_complex"", ""sports_activity_location"", ""point_of_interest"", ""establishment""]",4.0,950.0,PRICE_LEVEL_MODERATE
ChIJzzVHQnpJ0xQRv4uSQZcOrNg,Demetevler Parkı,"Barış, Barış Cd., 06190 Yenimahalle/Ankara, Türkiye",39.9671351,32.7966098,"[""park"", ""point_of_interest"", ""establishment""]",4.0,767.0,PRICE_LEVEL_MODERATE
ChIJwyy5RaxO0xQR1dKL2PIg-ZM,Ragıp Tüzün Park,"Yeniçağ, Taşkın Sk. No:9, 06170 Yenimahalle/Ankara, Türkiye",39.9657084,32.8119718,"[""park"", ""tourist_attraction"", ""point_of_interest"", ""establishment""]",4.3,1548.0,PRICE_LEVEL_MODERATE
ChIJz5BYgKJO0xQR5A84Y-mZ82M,Varlık Parkı,"Varlık, Yayın Sk. No:2, 06330 Yenimahalle/Ankara, Türkiye",39.958967,32.8308419,"[""park"", ""point_of_interest"", ""establishment""]",4.2,247.0,PRICE_LEVEL_MODERATE
ChIJYYQOCCRM0xQRjpU_ewFrUbA,Kanuni Parkı,"Aşağı Eğlence, Giresun Caddesi & Uludere Sokak, 06010 Keçiören/Ankara, Türkiye",39.9694572,32.836517,"[""park"", ""point_of_interest"", ""establishment""]",4.2,1813.0,PRICE_LEVEL_MODERATE
ChIJ7V4Q6yFM0xQRNgf1cT6q3p8,Selçuklu Parkı,"Aşağı Eğlence, Beste Sk. 1 D, 06010 Keçiören/Ankara, Türkiye",39.9691189,32.8322973,"[""park"", ""point_of_interest"", ""establishment""]",4.1,231.0,PRICE_LEVEL_MODERATE
ChIJJ1fLeKhO0xQRHHeUqztw8tE,Zeynepcik Parkı,"Yenimahalle, 06560 Yenimahalle/Ankara, Türkiye",39.9687707,32.8344879,"[""park"", ""point_of_interest"", ""establishment""]",4.3,159.0,PRICE_LEVEL_MODERATE
ChIJHbZrYyFM0xQRsiyd3SN6C7I,Yürüyüş Yolu Parkı,"Varlık, 06170 Yenimahalle/Ankara, Türkiye",39.9691229,32.8346412,"[""park"", ""point_of_interest"", ""establishment""]",4.4,305.0,PRICE_LEVEL_MODERATE
ChIJuRvc9ntN0xQRo_m17GJz5NM,Altınpark,"Aydınlıkevler, 06160 Altındağ/Ankara, Türkiye",39.965497,32.8792658,"[""garden"", ""park"", ""point_of_interest"", ""establishment""]",4.4,226.0,PRICE_LEVEL_MODERATE
ChIJvd9EzsFN0xQR1qeKIdXq1uo,Anfa Altinpark,"Aydınlıkevler, Şht. Ömer Halisdemir Blv No:142, 06160 Altındağ/Ankara, Türkiye",39.9675691,32.875382,"[""park"", ""general_contractor"", ""point_of_interest"", ""establishment""]",4.2,771.0,PRICE_LEVEL_MODERATE
ChIJFUE8KNhN0xQRcR0GIpJP-Co,Altınpark fuar alanı,"Aydınlıkevler, 06160 Altındağ/Ankara, Türkiye",39.9677948,32.8760893,"[""garden"", ""park"", ""point_of_interest"", ""establishment""]",4.2,310.0,PRICE_LEVEL_MODERATE
ChIJTRmLP5VN0xQRnD8js8ehsWw,Altın Koru,"Hasköy, Şht. Ömer Halisdemir Blv No:144, 06300 Altındağ/Ankara, Türkiye",39.9705588,32.8773273,"[""restaurant"", ""garden"", ""park"", ""food"", ""point_of_interest"", ""establishment""]",4.2,1095.0,PRICE_LEVEL_MODERATE
ChIJIzCuBOpN0xQR6TWzn_ukii0,Ankara Altınpark GoKart,"ana meydan, Aydınlıkevler, Şht. Ömer Halisdemir Blv no:146/20, 06160 Altındağ/Ankara, Türkiye",39.9649944,32.8763058,"[""park"", ""point_of_interest"", ""establishment""]",3.8,545.0,PRICE_LEVEL_MODERATE
ChIJ1Wzh8GVS0xQRkGHKEWRvf3s,Ulubey Parkı,"Ulubey, Şht. Gazeteci Hasan Tahsin Cd., 06360 Altındağ/Ankara, Türkiye",39.9672607,32.9146356,"[""park"", ""point_of_interest"", ""establishment""]",3.7,983.0,PRICE_LEVEL_MODERATE
ChIJHfVd0lBS0xQRVsjRmjQztkY,Muammer Aksoy Parkı,"Battalgazi, 981. Sk. No:34, 06360 Altındağ/Ankara, Türkiye",39.9650917,32.9347381,"[""park"", ""point_of_interest"", ""establishment""]",3.9,244.0,PRICE_LEVEL_MODERATE
ChIJc43j3VRS0xQRdZdh9Lns-yk,Türk Dünyası Vezir Tonyukuk Parkı,"Battalgazi, Bostancık Cd. 289 H, 06360 Altındağ/Ankara, Türkiye",39.9648031,32.942366199999995,"[""park"", ""point_of_interest"", ""establishment""]",3.9,712.0,PRICE_LEVEL_MODERATE
ChIJkzPWeqpT0xQRfNVBk6DYaa8,Rauf Raif Denktaş Parkı,"Ekin, Bostancık Cd., 06320 Mamak/Ankara, Türkiye",39.9649316,32.9473472,"[""park"", ""point_of_interest"", ""establishment""]",3.8,392.0,PRICE_LEVEL_MODERATE
ChIJTxIaGSo20xQRiNonkTQprto,Batikent Ceremony Park,"Kentkoop, Başkent Blv. No:213, 06370 Yenimahalle/Ankara, Türkiye",39.9693801,32.716519000000005,"[""park"", ""point_of_interest"", ""establishment""]",4.2,218.0,PRICE_LEVEL_MODERATE
ChIJi0XOvN5J0xQR8Ufyhu5DilU,Halil Tunç Parkı,"Kardelen, 1969. Sk. 6 A, 06370 Yenimahalle/Ankara, Türkiye",39.9780967,32.7230482,"[""park"", ""point_of_interest"", ""establishment""]",4.2,444.0,PRICE_LEVEL_MODERATE
ChIJuzvQYMNJ0xQRTp5Iv57dgww,Kütükçü Alibeyler Park,"İlkyerleşim, 1908. Sk. No:52, 06370 Yenimahalle/Ankara, Türkiye",39.9749452,32.7309979,"[""park"", ""point_of_interest"", ""establishment""]",4.4,136.0,PRICE_LEVEL_MODERATE
ChIJDSWLTv5L0xQRhxFonjQ1TGQ,Tepekule,"Ergenekon, 473. Sk. 191 A, 06170 Yenimahalle/Ankara, Türkiye",39.9756746,32.8051909,"[""park"", ""point_of_interest"", ""establishment""]",4.0,132.0,PRICE_LEVEL_MODERATE
ChIJnULAc1RJ0xQRFfkyGkPrKDk,Cengaver Park,"Esentepe, 06170 Yenimahalle/Ankara, Türkiye",39.9701163,32.8045096,"[""park"", ""point_of_interest"", ""establishment""]",3.8,105.0,PRICE_LEVEL_MODERATE
ChIJveUiUwRM0xQRuySKE4Qa_Ko,Göktürk Parkı,"Ayvalı, 159. Cd. 41 A, 06010 Keçiören/Ankara, Türkiye",39.9774255,32.8165001,"[""park"", ""point_of_interest"", ""establishment""]",4.2,199.0,PRICE_LEVEL_MODERATE
ChIJ0WuOjL5N0xQR256BjW5wnCo,Ihlamur Vadisi Ankara,"Kalaba, Atatürk Cd. No:21, 06120 Keçiören/Ankara, Türkiye",39.9745418,32.872897900000005,"[""park"", ""point_of_interest"", ""establishment""]",4.4,2854.0,PRICE_LEVEL_MODERATE
ChIJnbQtJo5N0xQRxpTWa-24sXw,Cemre Parkı,"Güneşevler, Şht. Pilot Fatih Korçam Cd, 06140 Altındağ/Ankara, Türkiye",39.9725346,32.8878176,"[""park"", ""tourist_attraction"", ""point_of_interest"", ""establishment""]",3.9,1678.0,PRICE_LEVEL_MODERATE
ChIJSW89vWBS0xQR00dOIemrr5s,Mevlana Parkı,"Başpınar, 1200. Sk. No:6, 06360 Altındağ/Ankara, Türkiye",39.9705666,32.919956,"[""park"", ""point_of_interest"", ""establishment""]",4.1,306.0,PRICE_LEVEL_MODERATE
ChIJJd6-Fn1S0xQRoBQrPnD5Ecg,Doğantepe Hacı Bayram Veli Parkı,"Doğantepe, 1335/1. Sk. 2 B, 06360 Altındağ/Ankara, Türkiye",39.9765547,32.9083906,"[""park"", ""point_of_interest"", ""establishment""]",4.3,226.0,PRICE_LEVEL_MODERATE
ChIJ1zoNVfZS0xQR4V13vghtIko,Kudüs Parkı,"Başpınar, 1158. Sk., 06360 Altındağ/Ankara, Türkiye",39.9735462,32.9295394,"[""park"", ""tourist_attraction"", ""point_of_interest"", ""establishment""]",4.0,216.0,PRICE_LEVEL_MODERATE
ChIJf7FX7wJT0xQRdoNzSm4_jnQ,Beşikkaya Koşuyolu Parkı,"Beşikkaya, 1890.Caddesi & 1909. Sokak, 06360 Altındağ/Ankara, Türkiye",39.9738391,32.945872,"[""park"", ""point_of_interest"", ""establishment""]",3.8,141.0,PRICE_LEVEL_MODERATE
ChIJm7x6_cg30xQRKT_nbSK1ORI,Vosvos Parkı,"Turgut Özal Mahallesi 2148. Sokak, Turgut Özal, 2152. Sk., 06370 Yenimahalle/Ankara, Türkiye",39.9873189,32.7137356,"[""park"", ""point_of_interest"", ""establishment""]",4.2,397.0,PRICE_LEVEL_MODERATE
ChIJSU9hx4NJ0xQR8N5JQV6QU7U,Huzur Parkı,"Serhat, 1307. Cad. No:10, 06374 Yenimahalle/Ankara, Türkiye",39.9831968,32.7596853,"[""park"", ""point_of_interest"", ""establishment""]",4.4,362.0,PRICE_LEVEL_MODERATE
ChIJDRFJg9ZL0xQR3WDvhcDye8Y,Barış Manço Parkı,"Serhat, Serhat Cd,, 06200 Yenimahalle/Ankara, Türkiye",39.9883605,32.7692271,"[""park"", ""point_of_interest"", ""establishment""]",4.3,205.0,PRICE_LEVEL_MODERATE
ChIJ6wXgCuJL0xQRvTNCokY1nNk,Gundogan Park,"Kayalar, Şht. Tuncay Özdere Cd., 06210 Yenimahalle/Ankara, Türkiye",39.978164,32.792843,"[""park"", ""point_of_interest"", ""establishment""]",3.9,176.0,PRICE_LEVEL_MODERATE
ChIJoXMeR-FL0xQRmIcovs5dUoQ,Kaletepe Playground,"Kaletepe, 891. Cd No:22, 06210 Yenimahalle/Ankara, Türkiye",39.9827138,32.7900362,"[""park"", ""point_of_interest"", ""establishment""]",4.0,105.0,PRICE_LEVEL_MODERATE
ChIJSwOtTONL0xQReSDx5gBPtwM,Kayalar Parkı,"Kayalar, 810. Sk. No:13, 06210 Yenimahalle/Ankara, Türkiye",39.9804181,32.7971566,"[""park"", ""tourist_attraction"", ""point_of_interest"", ""establishment""]",4.3,1793.0,PRICE_LEVEL_MODERATE
ChIJR9qULfFL0xQRRTBdspY6cgI,Big Oven Bakery Coffee House,"Burç, Seval Cd. No:99 D:B, 06210 Yenimahalle/Ankara, Türkiye",39.9871622,32.8024878,"[""banquet_hall"", ""meal_delivery"", ""food_delivery"", ""amusement_center"", ""dessert_shop"", ""confectionery"", ""cafe"", ""event_venue"", ""playground"", ""restaurant"", ""point_of_interest"", ""bakery"", ""food_store"", ""store"", ""food"", ""establishment""]",3.6,362.0,PRICE_LEVEL_MODERATE
ChIJfyyQIPJL0xQRj0dRkgTa0Ks,Muslum Gurses Park,"Burç, Değirmendere Cd., 06210 Yenimahalle/Ankara, Türkiye",39.9898679,32.798599,"[""park"", ""point_of_interest"", ""establishment""]",3.7,482.0,PRICE_LEVEL_MODERATE
ChIJSUVUUwVM0xQRmCKXvSCpZSA,Süleymaniye Parkı,"Ayvalı, Süleymaniye Cd. No:33, 06010 Keçiören/Ankara, Türkiye",39.978677,32.8198339,"[""park"", ""point_of_interest"", ""establishment""]",4.2,646.0,PRICE_LEVEL_MODERATE
ChIJcweCqwxM0xQROxNIUB1QRdQ,Zarife Aliyeva Parkı,"Sancaktepe, 1586/1. Sk, 06220 Keçiören/Ankara, Türkiye",39.989677,32.8163132,"[""park"", ""tourist_attraction"", ""point_of_interest"", ""establishment""]",4.3,378.0,PRICE_LEVEL_MODERATE
ChIJ8ZYqCWpM0xQRWxryMXO1MyQ,Esertepe Park,"Yayla, Ovacık, Şht. Mustafa Ercigez Cd No:35, 06220 Keçiören/Ankara, Türkiye",39.98844,32.8306686,"[""park"", ""tourist_attraction"", ""point_of_interest"", ""establishment""]",4.1,2897.0,PRICE_LEVEL_MODERATE
ChIJEVXP-D5M0xQR0Pv0DovslFY,Kuyuyaz Park,"Etlik, Kuyuyazısı Cd. No:18, 06010 Keçiören/Ankara, Türkiye",39.980023,32.8335713,"[""park"", ""park_and_ride"", ""parking"", ""point_of_interest"", ""establishment""]",4.1,270.0,PRICE_LEVEL_MODERATE
ChIJlc0T0zhM0xQR0eKVZfFdI_c,Mix Cafe & Playstation,"Esertepe, Gen. Dr. Tevfik Sağlam Cd No:156 D:A, 06220 Keçiören/Ankara, Türkiye",39.9805491,32.8368867,"[""fast_food_restaurant"", ""coffee_shop"", ""playground"", ""bar"", ""cafe"", ""food_store"", ""store"", ""restaurant"", ""food"", ""point_of_interest"", ""establishment""]",4.0,112.0,PRICE_LEVEL_MODERATE
ChIJIyosnDhM0xQRCzQI-dHJJSw,Cengiz Aytmatov Parki,"Merkez, Keçiören Merkez, Keçiören, Ankara, İncirli, 06010 Keçiören/Ankara, Türkiye",39.9813111,32.8388717,"[""park"", ""point_of_interest"", ""establishment""]",4.4,120.0,PRICE_LEVEL_MODERATE
ChIJzwJ-UEpM0xQRR6x4wMBhI78,Floral Park,"Çiçekli, 06010 Keçiören/Ankara, Türkiye",39.9799038,32.8502111,"[""park"", ""point_of_interest"", ""establishment""]",4.0,187.0,PRICE_LEVEL_MODERATE
ChIJlWdQiE5M0xQRAAKAIjw7vJw,Tamer Kılıç Parkı,"İncirli, Tamer Kılıç Park İçi Yolu, 06010 Keçiören/Ankara, Türkiye",39.9860149,32.8470228,"[""park"", ""point_of_interest"", ""establishment""]",4.1,127.0,PRICE_LEVEL_MODERATE
ChIJX8bekPJS0xQRnKuZcxZ_7cM,Aliya İzzet Begoviç Parkı,"Doğantepe, 1048. Cd. No:59, 06360 Altındağ/Ankara, Türkiye",39.981874,32.923057,"[""park"", ""point_of_interest"", ""establishment""]",4.2,106.0,PRICE_LEVEL_MODERATE
ChIJdXiRr4tJ0xQROqx_yn8yETM,Recep Tayyip Erdogan Park,"İvedik OSB, Melih Gökçek Blv., 06374 Yenimahalle/Ankara, Türkiye",39.990628,32.7441389,"[""park"", ""point_of_interest"", ""establishment""]",3.5,138.0,PRICE_LEVEL_MODERATE
ChIJExQ4aO9L0xQRAT9XongjbtI,Barış Spor Alanı,"Barıştepe, 791. Sk. No:12, 06210 Yenimahalle/Ankara, Türkiye",39.9878429,32.793016699999995,"[""park"", ""point_of_interest"", ""establishment""]",4.1,103.0,PRICE_LEVEL_MODERATE
ChIJjRi2WnRM0xQRxWmdaHkDAa8,Ali Alkan Parkı,"Sancaktepe, 06220 Keçiören/Ankara, Türkiye",39.9930369,32.8119599,"[""park"", ""point_of_interest"", ""establishment""]",4.2,105.0,PRICE_LEVEL_MODERATE
ChIJj8n0EkJM0xQRgnrWxxhIjjA,Esertepe Vadisi Parkı,"Esertepe, 265. Sk., 06220 Keçiören/Ankara, Türkiye",39.9891993,32.8310588,"[""botanical_garden"", ""park"", ""point_of_interest"", ""establishment""]",4.2,1038.0,PRICE_LEVEL_MODERATE
ChIJ08hZHW9M0xQRDheWjGj33Rw,Ali Kandemir Park,"Yayla, Porsuk Sk. No:58, 06220 Keçiören/Ankara, Türkiye",39.9936621,32.8232139,"[""park"", ""point_of_interest"", ""establishment""]",3.7,164.0,PRICE_LEVEL_MODERATE
ChIJJdLZjGdM0xQRkBzWwbVEw2M,Highland Park Neighborhood,"Yayla, 1507. Sk. 15/A, 06220 Keçiören/Ankara, Türkiye",39.9948487,32.8306901,"[""park"", ""point_of_interest"", ""establishment""]",4.1,336.0,PRICE_LEVEL_MODERATE
ChIJ68UuLqpN0xQRM34oDTotiw0,Sütçü İmam Parkı,"19 Mayıs, Sanatoryum Cd. No:203, 06290 Keçiören/Ankara, Türkiye",39.9921153,32.858510599999995,"[""park"", ""point_of_interest"", ""establishment""]",4.0,172.0,PRICE_LEVEL_MODERATE
ChIJH4FY61VM0xQRgVSbeOFRQtY,Kuşcağız Parkı,"Kuşcağız, Gazeller Cd. 71/A, 06290 Keçiören/Ankara, Türkiye",39.9959912,32.8493668,"[""park"", ""point_of_interest"", ""establishment""]",4.0,188.0,PRICE_LEVEL_MODERATE
ChIJla1_BABN0xQRJnHqz3CG6-E,Hakan Kabil Parkı,"Kuşcağız, Sakız Ağacı Cd., 06290 Keçiören/Ankara, Türkiye",39.9959563,32.853919999999995,"[""park"", ""point_of_interest"", ""establishment""]",3.9,138.0,PRICE_LEVEL_MODERATE
ChIJ8Tj1xVFM0xQROAdCFju31X4,KEÇİÖREN MUNICIPAL PARK İSMAİL BAKLAN,"19 Mayıs, Özgürlük Cd. No:21, 06290 Keçiören/Ankara, Türkiye",39.9897958,32.8456207,"[""park"", ""point_of_interest"", ""establishment""]",3.9,103.0,PRICE_LEVEL_MODERATE
ChIJ8x9QNHtN0xQRUKpoDSc5WuE,Dede Korkut Parkı,"Yeşiltepe, 430. Sk. No:8, 06300 Keçiören/İstanbul, Türkiye",39.9927132,32.8913437,"[""park"", ""point_of_interest"", ""establishment""]",4.2,141.0,PRICE_LEVEL_MODERATE
ChIJE7Iq4mRN0xQRK6SXoCygdnI,Keçiören Belediyesi Şehit Jan. Er Ali Koç Parkı,"Yeşiltepe, 2001. Sk. No:32, 06300 Keçiören/Ankara, Türkiye",39.9945422,32.8901375,"[""park"", ""point_of_interest"", ""establishment""]",4.1,106.0,PRICE_LEVEL_MODERATE
ChIJ69q5p2FN0xQR9l5H_8Yxyww,North Star Park,"Yeşiltepe, Şht. Ömer Halisdemir Blv, 06300 Keçiören/Ankara, Türkiye",39.9979286,32.8953781,"[""park"", ""point_of_interest"", ""establishment""]",4.1,258.0,PRICE_LEVEL_MODERATE
ChIJ9-fWc2NN0xQR7zuaJotbCzM,KEÇİÖREN BELEDİYESİ ŞEHİT JAN. ER CEMAL GÜLER PARKI,"Yeşiltepe, Kızılırmak Cd No:140, 06300 Keçiören/Ankara, Türkiye",39.9937156,32.8941891,"[""park"", ""point_of_interest"", ""establishment""]",4.0,106.0,PRICE_LEVEL_MODERATE
ChIJGUjAoVI50xQRLTy4vFHeur0,Engelsiz Yaşam Parkı,"Bağlıca, 06790 Etimesgut/Ankara, Türkiye",39.907516,32.6393556,"[""park"", ""point_of_interest"", ""establishment""]",4.6,164.0,PRICE_LEVEL_MODERATE
ChIJMWvKN_w50xQRO0KKyZ1Hsq8,Türk Tarih Müzesi ve Parkı,"Bağlıca, Kızılelma Caddesi No:1, 06790 Etimesgut/Ankara, Türkiye",39.9030787,32.64035500000001,"[""sculpture"", ""museum"", ""park"", ""point_of_interest"", ""establishment""]",4.8,2425.0,PRICE_LEVEL_MODERATE
ChIJW1t5uXg50xQRZ2dz82Yq5lA,Etimesgut Belediyesi Park ve Bahçeler Müdürlüğü,"Bağlıca, 06790 Etimesgut/Ankara, Türkiye",39.9166846,32.634296899999995,"[""park"", ""point_of_interest"", ""establishment""]",4.0,227.0,PRICE_LEVEL_MODERATE
ChIJCZ6VhI450xQR1Zf9s3Ru-qI,Kursat Park,"Ahi Mesut, 1865/1. Sk. No:15, 06794 Etimesgut/Ankara, Türkiye",39.9307255,32.6356092,"[""park"", ""tourist_attraction"", ""point_of_interest"", ""establishment""]",4.3,303.0,PRICE_LEVEL_MODERATE
ChIJsczcSOs50xQRPur-JzjAlDA,Şehit İsa Nazlım Parkı,"Ahi Mesut, 1773. Cd. No:263, 06794 Etimesgut/Ankara, Türkiye",39.9329279,32.645833,"[""park"", ""point_of_interest"", ""establishment""]",4.3,284.0,PRICE_LEVEL_MODERATE
ChIJFSFf8-o50xQRhjWHeT-tu_w,Çiğdem Parkı,"Alsancak, 2165. Sk. No:34, 06790 Etimesgut/Ankara, Türkiye",39.9335064,32.6486198,"[""park"", ""point_of_interest"", ""establishment""]",3.8,227.0,PRICE_LEVEL_MODERATE
ChIJ9T6kXpU50xQRTPTnXIsmRAY,Osman Bölükbaşı Parkı,"Alsancak, Alsancak Cd No:29, 06790 Etimesgut/Ankara, Türkiye",39.9302256,32.6500237,"[""park"", ""point_of_interest"", ""establishment""]",3.9,145.0,PRICE_LEVEL_MODERATE
ChIJcRu3mL850xQRkyGME0SsLSk,Osman Yüksel Serdengeçti Parkı,"Alsancak, 2198. Sk. No:4, 06790 Etimesgut/Ankara, Türkiye",39.9291752,32.6527884,"[""park"", ""tourist_attraction"", ""point_of_interest"", ""establishment""]",4.0,174.0,PRICE_LEVEL_MODERATE
ChIJOWmB2sM50xQRsD1oRMYgOGA,Alsancak Parkı,"Alsancak, 2150. Sk. No:21, 06790 Etimesgut/Ankara, Türkiye",39.9348057,32.6534467,"[""park"", ""point_of_interest"", ""establishment""]",3.9,184.0,PRICE_LEVEL_MODERATE
ChIJkTAd38Q50xQRgOddR7VQ4nU,Dudayev Peace Park,"İstasyon, Dudayev Cad, 06790 Etimesgut/Ankara, Türkiye",39.9364993,32.6588696,"[""park"", ""point_of_interest"", ""establishment""]",3.9,130.0,PRICE_LEVEL_MODERATE
ChIJx9X9D_A60xQRhpsZd8AjNr4,Jogging Park,"Pınarbaşı, 102. Sk. No:7, 06930 Sincan/Ankara, Türkiye",39.9470816,32.5719396,"[""park"", ""point_of_interest"", ""establishment""]",4.0,287.0,PRICE_LEVEL_MODERATE
ChIJjf0V4Fs60xQRf-p3r5LNLAc,Osmanlı Parkı,"Osmanlı, 06940 Sincan/Ankara, Türkiye",39.9449127,32.5882404,"[""park"", ""point_of_interest"", ""establishment""]",4.2,187.0,PRICE_LEVEL_MODERATE
ChIJf-ruTl860xQRmNH5nWxBtOM,Sinan Şamil Sam Parkı,"Osmanlı, 06940 Sincan/Ankara, Türkiye",39.9475309,32.5834021,"[""park"", ""point_of_interest"", ""establishment""]",4.2,210.0,PRICE_LEVEL_MODERATE
ChIJy1bTKl060xQRFlZ2BVMF_LE,Kanuni Parkı,"Ertuğrulgazi, 06940 Sincan/Ankara, Türkiye",39.9468695,32.59436650000001,"[""park"", ""point_of_interest"", ""establishment""]",3.9,196.0,PRICE_LEVEL_MODERATE
ChIJLXMJgmo60xQR00Q0xuCxqzA,80th Anniversary of the Republic Park,"Oğuzlar, 06796 Etimesgut/Ankara, Türkiye",39.9457431,32.6025522,"[""park"", ""point_of_interest"", ""establishment""]",4.3,488.0,PRICE_LEVEL_MODERATE
ChIJ438dohY60xQRf8uxr0Cg3m0,Bahçeli Parkı,"Oğuzlar, 06790 Etimesgut/Ankara, Türkiye",39.9468535,32.611009,"[""park"", ""point_of_interest"", ""establishment""]",4.1,468.0,PRICE_LEVEL_MODERATE
ChIJK9QA8z060xQRUv9d_W9sogs,Adalet Birleşik Devletleri,"Oğuzlar, 06796 Etimesgut/Ankara, Türkiye",39.9425902,32.6119875,"[""park"", ""point_of_interest"", ""establishment""]",4.2,418.0,PRICE_LEVEL_MODERATE
ChIJLwX4LdY50xQRqwJM9spHGpY,T. C. Alparslan Turkes Park,"İstasyon, Alparslan Türkeş Cd. No:3, 06790 Etimesgut/Ankara, Türkiye",39.9444654,32.6647996,"[""park"", ""tourist_attraction"", ""point_of_interest"", ""establishment""]",4.0,1342.0,PRICE_LEVEL_MODERATE
ChIJe6W4dGI30xQRz4TESbbpNM4,Nenehatun Parkı,"Kazım Karabekir, 2052. Sk. 11/A, 06790 Etimesgut/Ankara, Türkiye",39.9475,32.6575,"[""park"", ""point_of_interest"", ""establishment""]",3.6,287.0,PRICE_LEVEL_MODERATE
ChIJbwOXMNo50xQRjtMdH2yBwAk,TEGV Semahat - Dr. Nüsret Arsel Education Park,"İstasyon, Hikmet Özer Cd. No:47, 06790 Etimesgut/Ankara, Türkiye",39.9408629,32.6595614,"[""park"", ""point_of_interest"", ""establishment""]",4.3,243.0,PRICE_LEVEL_MODERATE
ChIJtTFihnk50xQRi88h5ImRKWY,seyirtepe parkı,"İstasyon, 2318. Cd. No:59, 06790 Etimesgut/Ankara, Türkiye",39.9356542,32.6656567,"[""park"", ""point_of_interest"", ""establishment""]",4.4,116.0,PRICE_LEVEL_MODERATE
ChIJXSr5-4E30xQR1r-U7XFdJk4,AOC Ataturk Run Road Park,"Bahçekapı, 06790 Etimesgut/Ankara, Türkiye",39.94722170000001,32.6725997,"[""park"", ""tourist_attraction"", ""point_of_interest"", ""establishment""]",4.2,523.0,PRICE_LEVEL_MODERATE
ChIJDWBwW9A50xQRRcsEWUSvEZg,ŞEHİT ERHAN AR PARKI,"İstasyon, 2342. Sk. No:6, 06790 Etimesgut/Ankara, Türkiye",39.9378497,32.6636496,"[""park"", ""point_of_interest"", ""establishment""]",4.0,118.0,PRICE_LEVEL_MODERATE
ChIJVf-Ci_Q60xQR4p9zMb9XIRY,Tunahan Parkı,"Osmanlı, 06940 Sincan/Ankara, Türkiye",39.9517515,32.5780923,"[""park"", ""point_of_interest"", ""establishment""]",3.9,266.0,PRICE_LEVEL_MODERATE
ChIJoZjDVZI60xQReCwd5_nqaH0,Sehitler Parki,"Malazgirt, Karayolu Sokağı No:1, 06930 Sincan/Ankara, Türkiye",39.9594483,32.569209,"[""park"", ""point_of_interest"", ""establishment""]",4.0,655.0,PRICE_LEVEL_MODERATE
ChIJmwtcz8070xQRK5H9d6k2mEA,Kent Meydanı,"Atatürk, 06930 Sincan/Ankara, Türkiye",39.959755,32.5844348,"[""park"", ""point_of_interest"", ""establishment""]",4.2,213.0,PRICE_LEVEL_MODERATE
ChIJHcyzI2460xQRLk8Du5MlDSk,Tuna Parkı,"Selçuklu, 06940 Sincan/Ankara, Türkiye",39.9563444,32.5980012,"[""park"", ""tourist_attraction"", ""point_of_interest"", ""establishment""]",3.9,1079.0,PRICE_LEVEL_MODERATE
ChIJL6d12xQ60xQRR8B15CIfHFQ,Mazi Kahvesi,"Oğuzlar, Ahi Mesut Bulvarı, Elvankent Tuğra Parkı İçi D:6, 06796 Etimesgut/Ankara, Türkiye",39.9477154,32.6061183,"[""coffee_shop"", ""breakfast_restaurant"", ""cafe"", ""event_venue"", ""playground"", ""restaurant"", ""point_of_interest"", ""food_store"", ""store"", ""food"", ""establishment""]",3.8,2529.0,PRICE_LEVEL_MODERATE
ChIJl_BXdg060xQRIKd1AtdTdlw,Elvankent Park,"Atakent, 06790 Etimesgut/Ankara, Türkiye",39.9551078,32.6073095,"[""park"", ""point_of_interest"", ""establishment""]",4.3,1060.0,PRICE_LEVEL_MODERATE
ChIJbcbxwRQ60xQRz-nfPs-kWbE,Tuğra Park,"Oğuzlar, Ahi Mesut Blv, 06796 Etimesgut/Ankara, Türkiye",39.948057,32.60649,"[""park"", ""point_of_interest"", ""establishment""]",4.1,155.0,PRICE_LEVEL_MODERATE
ChIJ_wLMxv050xQREnPZukS479E,Emirler,"Gölbaşı, 1964. Sk. No:10 D:c, 06830 Gölbaşı/Ankara, Türkiye",39.9529723,32.6347147,"[""park"", ""point_of_interest"", ""establishment""]",4.6,244.0,PRICE_LEVEL_MODERATE
ChIJtbWmWfk50xQRrsfodJloUEk,Sukru Castle Park,"Piyade, 06790 Etimesgut/Ankara, Türkiye",39.9496772,32.6331434,"[""park"", ""point_of_interest"", ""establishment""]",3.9,358.0,PRICE_LEVEL_MODERATE
ChIJSUbmaOA50xQRLkC6lw3em4U,Keloğlan Parkı,"Kazım Karabekir, 06794 Etimesgut/Ankara, Türkiye",39.9482767,32.6492295,"[""park"", ""point_of_interest"", ""establishment""]",3.8,238.0,PRICE_LEVEL_MODERATE
ChIJWxvPIeM50xQRW1o-X7m87xM,Şirinler Parkı,"Piyade, 06790 Etimesgut/Ankara, Türkiye",39.95014400000001,32.640343,"[""park"", ""point_of_interest"", ""establishment""]",3.8,131.0,PRICE_LEVEL_MODERATE
ChIJ7Xslaf050xQRPERa6fliKrM,Şehit Teğmen Sabri Kartal Parkı,"Piyade, 1974. Sk. 4/A, 06790 Etimesgut/Ankara, Türkiye",39.952813,32.637419,"[""park"", ""point_of_interest"", ""establishment""]",4.1,371.0,PRICE_LEVEL_MODERATE
ChIJ-eBst4c60xQR2TivKBbYCWI,Lale Parkı,"Atatürk, 06936 Sincan/Ankara, Türkiye",39.963633,32.5804245,"[""park"", ""point_of_interest"", ""establishment""]",3.9,1892.0,PRICE_LEVEL_MODERATE
ChIJo8MgOnE60xQRrMHsEgOtqJs,Cumhuriyet Parkı,"Mareşal Çakmak, 06946 Sincan/Ankara, Türkiye",39.9608333,32.5975,"[""park"", ""point_of_interest"", ""establishment""]",4.0,1510.0,PRICE_LEVEL_MODERATE
ChIJDSKcsZAx0xQRXeJ3g3h92IM,Hani Bana Çocuk Atölyesi,"Yeşilova Mahallesi 4016.Cadde No:10BJ, Yeşilova, 06796 Etimesgut/Ankara, Türkiye",39.9639518,32.6104708,"[""cafe"", ""playground"", ""food"", ""point_of_interest"", ""establishment""]",4.6,101.0,PRICE_LEVEL_MODERATE
ChIJnU5ehZsw0xQRCPhQPJGDcsE,Evcil Hayvanlar Parkı,"Plevne, Destek Sk Evcil Hayvanlar Parkı, 06930 Sincan/Ankara, Türkiye",39.9710819,32.5972349,"[""park"", ""tourist_attraction"", ""point_of_interest"", ""establishment""]",4.1,1091.0,PRICE_LEVEL_MODERATE
ChIJT3XAOZAw0xQR4kj9fuD9Jj8,Harikalar Diyarı Giriş 11,"Yunus Emre, 06932 Sincan/Ankara, Türkiye",39.9777552,32.5950197,"[""park"", ""point_of_interest"", ""establishment""]",4.2,108.0,PRICE_LEVEL_MODERATE
ChIJtxq9opMw0xQRHfudhnaAAtg,Harikalar Diyarı Giriş 7,"Yunus Emre, Harikalar Diyarı, 06933 Sincan Osb/Sincan/Ankara, Türkiye",39.9815596,32.598016,"[""park"", ""point_of_interest"", ""establishment""]",4.4,177.0,PRICE_LEVEL_MODERATE
ChIJn-UlSJEw0xQRWiDZ3ChA_MQ,Harikalar Diyarı Giriş 9,"Yunus Emre, 06933 Sincan/Ankara, Türkiye",39.978357,32.598904,"[""park"", ""point_of_interest"", ""establishment""]",4.4,365.0,PRICE_LEVEL_MODERATE
ChIJCf7y45Mw0xQRiG00J8Ft-WE,Harikalar Diyarı Giriş 8,"Yunus Emre, 06933 Sincan Osb/Sincan/Ankara, Türkiye",39.979876,32.5985003,"[""park"", ""point_of_interest"", ""establishment""]",4.3,102.0,PRICE_LEVEL_MODERATE
ChIJrzOe9pkw0xQRqjPZwnWoJEE,Yunus Emre Parkı,"Yunus Emre, Abdürrahim Karakoç Cd, 06933 Sincan Osb/Sincan/Ankara, Türkiye",39.9743811,32.597143599999995,"[""park"", ""point_of_interest"", ""establishment""]",4.2,433.0,PRICE_LEVEL_MODERATE
ChIJ0x1mDBA30xQRf6VA-8H4yuM,ANKARA BOSPHORUS,"Mahallesi, Şehit Osman Avcı, Fatih Sultan Mehmet Blv No:1, 06820 Etimesgut/Ankara, Türkiye",39.9730235,32.6596405,"[""hiking_area"", ""park"", ""athletic_field"", ""swimming_pool"", ""parking"", ""sports_activity_location"", ""point_of_interest"", ""establishment""]",4.2,273.0,PRICE_LEVEL_MODERATE
ChIJFdFJ-WUw0xQRzLocvvg0A84,Semazen Parkı,"Mevlana, 06949 Sincan/Ankara, Türkiye",39.987806,32.571477,"[""park"", ""point_of_interest"", ""establishment""]",4.2,271.0,PRICE_LEVEL_MODERATE
ChIJffMq9sEw0xQRWgHAfvABlOc,Ergenekon Parkı,"Güzelkent, 06793 Etimesgut/Ankara, Türkiye",39.9861077,32.6056248,"[""park"", ""point_of_interest"", ""establishment""]",4.0,176.0,PRICE_LEVEL_MODERATE
ChIJjdxs1-ow0xQR7aVpOpfu7nM,Aşık Veysel Parkı,"Güzelkent, Harf Devrimi Cd., 06827 Etimesgut/Ankara, Türkiye",39.9828068,32.60279200000001,"[""park"", ""tourist_attraction"", ""point_of_interest"", ""establishment""]",4.2,351.0,PRICE_LEVEL_MODERATE
ChIJob_8zMgw0xQRJ9cLa1gQ0E8,Bülent Ecevit Parkı,"Tunahan, 235. Sk., 06824 Etimesgut/Ankara, Türkiye",39.982455,32.618367,"[""park"", ""point_of_interest"", ""establishment""]",4.3,511.0,PRICE_LEVEL_MODERATE
ChIJOR0iVtQw0xQRjlgdpUjPCD0,Eryaman 4th Stage Park,"Tunahan, 06824 Etimesgut/Ankara, Türkiye",39.991656,32.624897,"[""park"", ""point_of_interest"", ""establishment""]",4.3,178.0,PRICE_LEVEL_MODERATE
ChIJjeWVM1gw0xQRJjBm-8Pcuss,Çoban Çeşmesi Sera Park,"Gazi Osmanpaşa, Alcan Sk., 06105 Sincan/Ankara, Türkiye",39.998477,32.579938,"[""park"", ""point_of_interest"", ""establishment""]",4.5,249.0,PRICE_LEVEL_MODERATE
ChIJfxsNYF8w0xQRdo91kOlPi4M,Sincan G. O. P. Parkı,"Gazi Osmanpaşa, Park İçi Yol, 06932 Sincan/Ankara, Türkiye",39.9927009,32.582439,"[""park"", ""point_of_interest"", ""establishment""]",4.4,147.0,PRICE_LEVEL_MODERATE
ChIJXwu2ONow0xQRzKysaHkqk8k,Kirkuk Park,"Güzelkent, 06827 Etimesgut/Ankara, Türkiye",39.9920018,32.6147334,"[""park"", ""point_of_interest"", ""establishment""]",4.0,149.0,PRICE_LEVEL_MODERATE
ChIJO6K0rNM20xQRVWUZlCVFMk0,Gamze Parkı,"Şeyh Şamil, Ağrı Dağı Cd. No:6, 06824 Etimesgut/Ankara, Türkiye",39.9996111,32.6309247,"[""park"", ""point_of_interest"", ""establishment""]",4.4,122.0,PRICE_LEVEL_MODERATE
ChIJAwAA1WZO0xQR-tUckH-cL_E,ANKARA HİSAR (KALE) PARKI VE KASRI,"Kale, KAPIDAĞ YOKUŞU SOKAK NO 17, 06250 Altındağ/Ankara, Türkiye",39.9420877,32.8633943,"[""park"", ""hiking_area"", ""restaurant"", ""sports_activity_location"", ""point_of_interest"", ""food"", ""establishment""]",3.6,1823.0,PRICE_LEVEL_MODERATE
ChIJa-eo5XlT0xQR0qND9WLJD-4,Yeşilkuşak Parkı,"Karapürçek, 311. Cadde No:22, 06165 Altındağ/Ankara, Türkiye",39.9596795,32.9781303,"[""park"", ""point_of_interest"", ""establishment""]",4.1,160.0,PRICE_LEVEL_MODERATE
ChIJI4tMi6pN0xQRVJd9j3eossk,Aşağı eğlence,"Aşağı Eğlence, Gen. Dr. Tevfik Sağlam Cd No:87, 06010 Keçiören/Ankara, Türkiye",39.9726138,32.8409799,"[""park"", ""point_of_interest"", ""establishment""]",4.5,121.0,PRICE_LEVEL_MODERATE
ChIJd5wA7Q9T0xQR5kpN-KUz1As,Recep Yazicioglu Park,"Beşikkaya, 2019. Sk. No:17, 06360 Altındağ/Ankara, Türkiye",39.9712574,32.9559878,"[""park"", ""point_of_interest"", ""establishment""]",4.1,105.0,PRICE_LEVEL_MODERATE
ChIJI74GwhJT0xQR1QlgXIhsi1I,Şehitler Korusu,"Karapürçek, 06105 Altındağ/Ankara, Türkiye",39.970624,32.964905,"[""park"", ""point_of_interest"", ""establishment""]",4.2,125.0,PRICE_LEVEL_MODERATE
ChIJ-bHsT2lT0xQRqKLIL_jcMRA,Kosovo Park,"Karapürçek, 455. Sk., 06165 Altındağ/Ankara, Türkiye",39.9719928,32.9728455,"[""park"", ""tourist_attraction"", ""point_of_interest"", ""establishment""]",4.1,352.0,PRICE_LEVEL_MODERATE
ChIJhUuZI_lM0xQRTbol9osoc5k,Ekrem Basbug Park,"Kuşcağız, 06290 Keçiören/Ankara, Türkiye",40.000489,32.8468868,"[""park"", ""point_of_interest"", ""establishment""]",4.1,173.0,PRICE_LEVEL_MODERATE
ChIJ-bbw62dN0xQRO7mp47Qdy8M,Barbaros Hayrettin Paşa Parkı,"Aktepe, 950. Sk. No:1, 06300 Keçiören/Ankara, Türkiye",40.0018976,32.8884451,"[""park"", ""point_of_interest"", ""establishment""]",4.0,221.0,PRICE_LEVEL_MODERATE
ChIJDbHsV_tM0xQRgSXAsgl22AY,Filistin Parkı,"Atapark, Aşık Veysel Cd., 1275. Sk. No:1, 06280 Keçiören/Ankara, Türkiye",40.0059304,32.8479275,"[""park"", ""point_of_interest"", ""establishment""]",3.9,506.0,PRICE_LEVEL_MODERATE
ChIJ6VowR-FM0xQR_Z110hPKC40,Yaşar Güler Parkı,"Atapark, 1335. Sk., 06280 Keçiören/Ankara, Türkiye",40.0122344,32.849174999999995,"[""park"", ""point_of_interest"", ""establishment""]",4.1,200.0,PRICE_LEVEL_MODERATE
ChIJWXde2hhN0xQR9FLTxceVlVI,Awakening Park,"Osmangazi, Ayla 1. Sk., 06280 Keçiören/Ankara, Türkiye",40.0095044,32.860376599999995,"[""park"", ""point_of_interest"", ""establishment""]",4.0,327.0,PRICE_LEVEL_MODERATE
ChIJw_xMbj5N0xQRvnCehClwiII,Nevzat Şener Parkı,"Bademlik, 06300 Keçiören/Ankara, Türkiye",40.0098318,32.871286399999995,"[""park"", ""point_of_interest"", ""establishment""]",3.8,180.0,PRICE_LEVEL_MODERATE
ChIJOQYYz15N0xQRsdTDlss3GHM,North Star Valley,"Şenyuva, 06300 Keçiören/Ankara, Türkiye",40.0048701,32.8948947,"[""park"", ""point_of_interest"", ""establishment""]",4.3,1584.0,PRICE_LEVEL_MODERATE
ChIJi4SW2ihN0xQR4pyz0coOLVY,Keçiören Belediyesi Şehit Piy. Ast.Tğm. Ömer Zeki Varan Parkı,"Kanuni, 897. Sk., 06280 Keçiören/Ankara, Türkiye",40.0236863,32.8585678,"[""park"", ""point_of_interest"", ""establishment""]",3.9,111.0,PRICE_LEVEL_MODERATE
ChIJN907R01N0xQRXlH3MXeQJ3Q,Erdem Sertoğlu Memorial Forest,"Şenyuva, Ankara Çevre Yolu, 06300 Keçiören/Ankara, Türkiye",40.0215161,32.8861374,"[""national_park"", ""park"", ""point_of_interest"", ""establishment""]",3.9,197.0,PRICE_LEVEL_MODERATE
ChIJCfv6uBwIgkARXu3N5VgcyII,Freedom Park,"Ayyıldız, Taner Sağır Sk. No:2, 06145 Pursaklar/Ankara, Türkiye",40.0242493,32.8896004,"[""park"", ""tourist_attraction"", ""point_of_interest"", ""establishment""]",4.3,310.0,PRICE_LEVEL_MODERATE
ChIJLwgM6QMIgkARbIz_xxbTZtY,Cyprus Park,"Şenyuva, 24. Sk. No:107, 06300 Keçiören/Ankara, Türkiye",40.0226306,32.8956309,"[""park"", ""point_of_interest"", ""establishment""]",4.3,142.0,PRICE_LEVEL_MODERATE
ChIJO5GHX9cJgkARqT3vnpMMYBQ,Call Memorial Forest Schools,"Kafkas, Bağlum Blv, 06291 Keçiören/Ankara, Türkiye",40.0330186,32.8412875,"[""national_park"", ""park"", ""point_of_interest"", ""establishment""]",3.8,502.0,PRICE_LEVEL_MODERATE
ChIJUZuRGW0IgkAR6nVFT9WOLTk,Şehit Salim Akgül Parkı,"Merkez, Belediye Cd., 06145 Pursaklar/Ankara, Türkiye",40.0367909,32.9030874,"[""park"", ""point_of_interest"", ""establishment""]",4.0,508.0,PRICE_LEVEL_MODERATE
ChIJ7e-NFA4IgkARews_zFKznEw,Mülkiye Hatıra Ormanı,"Merkez, Özal Bulvarı, 06145 Pursaklar/Ankara, Türkiye",40.0297801,32.9015793,"[""national_park"", ""park"", ""point_of_interest"", ""establishment""]",3.9,278.0,PRICE_LEVEL_MODERATE
ChIJc_CRTMMJgkAR9pAoKPz09Fg,Botanical Park,"Karakaya, Yağmur Sk. No:2, 06291 Keçiören/Ankara, Türkiye",40.044441,32.844345,"[""park"", ""point_of_interest"", ""establishment""]",4.1,567.0,PRICE_LEVEL_MODERATE
ChIJN11tcUEIgkARCJaKzt8XuYI,Recep Tayyip Erdogan Park,"Merkez, Saray Sk. No:15, 06145 Pursaklar/Ankara, Türkiye",40.0420546,32.892404899999995,"[""park"", ""mosque"", ""place_of_worship"", ""point_of_interest"", ""establishment""]",4.0,568.0,PRICE_LEVEL_MODERATE
ChIJ9bfb868JgkARGiyTWW9xlZ4,Endemik Vadi,"Fatih, Büyükdere Cd., 06145 Pursaklar/Ankara, Türkiye",40.049361000000005,32.9159738,"[""park"", ""point_of_interest"", ""establishment""]",4.4,827.0,PRICE_LEVEL_MODERATE
ChIJd84dVGEIgkAR69Kn1JyiNsI,Smile Picnic Area,"Fatih, Konur Sk. No:26, 06145 Pursaklar/Ankara, Türkiye",40.0470466,32.9114925,"[""park"", ""point_of_interest"", ""establishment""]",4.1,1037.0,PRICE_LEVEL_MODERATE
ChIJzyAVa2EIgkARssjzTVMtgA0,ABB-Pursaklar Tebessüm Parkı,"Fatih, Üsküp Sk. No:1, 06145 Pursaklar/Ankara, Türkiye",40.0473451,32.91149790000001,"[""park"", ""point_of_interest"", ""establishment""]",4.2,392.0,PRICE_LEVEL_MODERATE
ChIJuYSpWb8JgkARr9MbRnO2MyY,Bağlum Belediyesi Harikalar Diyarı Çocuk Parkı,"Karşıyaka, 06291 Keçiören/Ankara, Türkiye",40.051063,32.8530047,"[""park"", ""point_of_interest"", ""establishment""]",3.9,160.0,PRICE_LEVEL_MODERATE
ChIJu7EdR9YFgkAR9h8IZ0KFR9o,Güzelhisar Mesire Alanı,"Güzelhisar, 86. Sk. No:108, 06750 Akyurt/Ankara, Türkiye",40.0585983,33.0056246,"[""garden"", ""tourist_attraction"", ""park"", ""point_of_interest"", ""establishment""]",4.3,704.0,PRICE_LEVEL_MODERATE
ChIJqzVUKVkFgkARmQ2Lbditwbk,Poyraz Paşanın Yeri - Kahvaltı,"Güzelhisar mahallesi Bağlar Mevkii, Güzelhisar, No : 166, 06750 Akyurt/Ankara, Türkiye",40.0603024,33.001274599999995,"[""breakfast_restaurant"", ""wedding_venue"", ""tea_house"", ""playground"", ""event_venue"", ""restaurant"", ""food"", ""point_of_interest"", ""establishment""]",4.6,201.0,PRICE_LEVEL_MODERATE
ChIJPd1TTs8IgkARBhplmm2TE88,Saray Parkı,"Saray Cumhuriyet, Şht. Musa Kaplan Cd. No:14, 06145 Pursaklar/Ankara, Türkiye",40.0735771,32.9304324,"[""park"", ""point_of_interest"", ""establishment""]",3.9,273.0,PRICE_LEVEL_MODERATE
ChIJyQYVwHUPgkARRGsjKBNLR0U,VAVA'S Garden,"Balıkhisar, Esenboğa Havalimanı Yolu 24.Km, 06750 Akyurt/Ankara, Türkiye",40.1010967,32.9824349,"[""picnic_ground"", ""swimming_pool"", ""sports_activity_location"", ""restaurant"", ""point_of_interest"", ""food"", ""establishment""]",4.3,383.0,PRICE_LEVEL_MODERATE
